|School_Name|Reg_nr|Language|Address|Year|Number_of_students|Active|LAT|LON|Novads|Novada pilsēta|Pagasts|Republikas pilsēta|Novada populācija|Novada pilsētas populācija|Republikas pilsētas populācija|Studentsbefore|yearlychange|Cumulative_change|Cchange_module|student_diff|reg_iedz_skaits|dist_to_nierest|Y|School_Name_original|cnt_olympiad_entries|LAT9|LAT12|MAT12|ANG9|MAT9|ANG12
1826|saldusnovadapašvaldībasrubasspeciālāinternātpamatskola|4120901053|Latviešu|REŅĢE, RUBAS PAGASTS, SALDUS NOVADS, LV-3894|2010|86|1|56.38249|22.62441|Saldus nov.|--|Rubas pag.|--|26579|--|--|95.0|-9.0|0.0|0.0|-9|26579|0.24420454745971323|True|Saldus novada pašvaldības Rubas speciālā internātpamatskola|0|-1.0|-1.0|-1.0|-1.0|-1.0|-1.0
1827|"privātsākumskola""varavīksne"""|3011800081|Latviešu|REPUBLIKAS IELA 23, LIEPĀJA, LV-3401|2010|28|1|56.50793|21.00123|--|--|--|Liepāja|--|--|78913|27.0|1.0|0.0|0.0|1|78913|0.0022303587155398873|True|"Privātsākumskola ""Varavīksne"""|0|-1.0|-1.0|-1.0|-1.0|-1.0|-1.0
1828|murmastienespamatskola|4412900113|Latviešu|RĒZEKNES IELA 1, MURMASTIENE, MURMASTIENES PAGASTS, VARAKĻĀNU NOVADS, LV-4835|2010|64|1|56.66805|26.56645|Varakļānu nov.|--|Murmastienes pag.|--|3650|--|--|76.0|-12.0|0.0|0.0|-12|3650|0.0708426213518383|True|Murmastienes pamatskola|0|68.18|-1.0|-1.0|65.4|38.17|-1.0
1829|viļānuvidusskola|4213900184|LK|RĒZEKNES IELA 1a, VIĻĀNI, VIĻĀNU NOVADS, LV-4650|2010|598|1|56.55134|26.92521|Viļānu nov.|Viļāni|--|--|6585|3299|--|616.0|-18.0|0.0|0.0|-18|6585|0.11104632591851495|True|Viļānu vidusskola|0|70.45|52.37|45.04|68.6|63.69|48.67
1830|krāslavasgrplāteruvnpoļupamatskola|1112900569|Poļu|RĒZEKNES IELA 39, KRĀSLAVA, KRĀSLAVAS NOVADS, LV-5601|2010|55|1|55.90074|27.17793|Krāslavas nov.|Krāslava|--|--|18159|9395|--|57.0|-2.0|0.0|0.0|-2|18159|0.007772322690162351|True|Krāslavas Gr. Plāteru v.n. Poļu pamatskola|0|-1.0|-1.0|-1.0|56.14|-1.0|-1.0
1832|līvānu1vidusskola|1813900374|Latviešu|RĪGAS IELA 101, LĪVĀNI, LĪVĀNU NOVADS, LV-5316|2010|609|1|56.35814|26.17172|Līvānu nov.|Līvāni|--|--|13003|8421|--|653.0|-44.0|0.0|0.0|-44|13003|0.0019259543089100327|True|Līvānu 1. vidusskola|0|72.02|63.37|40.49|70.21|59.53|57.0
1833|līvānu2vidusskola|1813900387|Krievu|RĪGAS IELA 113/117, LĪVĀNI, LĪVĀNU NOVADS, LV-5316|2010|255|1|56.35996|26.17235|Līvānu nov.|Līvāni|--|--|13003|8421|--|271.0|-16.0|0.0|0.0|-16|13003|0.0019259543089100327|True|Līvānu 2. vidusskola|0|-1.0|-1.0|51.28|52.09|46.67|46.04
1835|ventspils4vidusskola|3213900035|Latviešu|RĪGAS IELA 12a, VENTSPILS, LV-3601|2010|675|1|57.39413|21.55684|Ventspils nov.|--|Ances pag.|Ventspils|12525|--|39881|704.0|-29.0|0.0|0.0|-29|12525|0.0039578276869986755|True|Ventspils 4. vidusskola|0|71.7|53.36|45.97|73.31|53.01|62.03
1836|strenčunovadavidusskola|4413902791|Latviešu|RĪGAS IELA 13, STRENČI, STRENČU NOVADS, LV-4730|2010|324|1|57.6271206|25.6828557|Strenču nov.|Strenči|--|--|3985|1452|--|182.0|142.0|0.0|0.0|142|3985|0.0719778273835091|True|Strenču novada vidusskola|0|71.82|63.85|39.95|59.71|44.36|55.37
1837|smiltenestrīspakalnusākumskola|4411902496|Latviešu|RĪGAS IELA 16c, SMILTENE, SMILTENES NOVADS, LV-4729|2010|224|1|57.41868|25.88769|Smiltenes nov.|Smiltene|--|--|13417|5628|--|256.0|-32.0|0.0|0.0|-32|13417|0.02356652074448096|True|Smiltenes Trīs pakalnu sākumskola|0|-1.0|-1.0|-1.0|-1.0|-1.0|-1.0
1839|lejasciemavidusskola|813900964|Latviešu|RĪGAS IELA 20, LEJASCIEMS, LEJASCIEMA PAGASTS, GULBENES NOVADS, LV-4412|2010|172|1|57.2788|26.57483|Gulbenes nov.|--|Lejasciema pag.|--|23574|--|--|190.0|-18.0|0.0|0.0|-18|23574|0.1396963915067294|True|Lejasciema vidusskola|0|71.91|68.49|38.46|64.77|61.11|62.24
1825|rencēnupamatskola|2512900645|Latviešu|RENCĒNI, BURTNIEKU NOVADS, LV-4232|2010|103|1|57.73036|25.43218|Burtnieku nov.|--|Rencēnu pag.|--|8523|--|--|109.0|-6.0|0.0|0.0|-6|8523|0.12186359013257383|True|Rencēnu pamatskola|0|66.48|-1.0|-1.0|56.17|44.67|-1.0
1840|jēkabpilspamatskola|1012902246|Latviešu|RĪGAS IELA 200a, JĒKABPILS, LV-5202|2010|604|1|56.50477|25.86559|Krustpils nov.|--|Krustpils pag.|Jēkabpils|6244|--|25233|621.0|-17.0|0.0|0.0|-17|6244|0.004142197484427034|True|Jēkabpils pamatskola|0|-1.0|-1.0|-1.0|-1.0|-1.0|-1.0
1842|limbažunovadaģimnāzija|4316901395|Latviešu|RĪGAS IELA 28, LIMBAŽI, LIMBAŽU NOVADS, LV-4001|2010|526|1|57.50749|24.71271|Limbažu nov.|Limbaži|--|--|18369|8061|--|552.0|-26.0|0.0|0.0|-26|18369|0.0005953990258592298|True|Limbažu novada ģimnāzija|0|-1.0|-1.0|-1.0|-1.0|-1.0|-1.0
1844|majoruvidusskola|2913901352|Latviešu|RĪGAS IELA 3, JŪRMALA, LV-2015|2010|384|1|56.97011|23.80473|--|--|--|Jūrmala|--|--|51749|413.0|-29.0|0.0|0.0|-29|51749|0.010980938029151621|True|Majoru vidusskola|0|-1.0|-1.0|-1.0|-1.0|-1.0|-1.0
1845|limbažu2vidusskola|4313901465|Latviešu|RĪGAS IELA 30, LIMBAŽI, LIMBAŽU NOVADS, LV-4001|2010|112|1|57.5069|24.71279|Limbažu nov.|Limbaži|--|--|18369|8061|--|152.0|-40.0|0.0|0.0|-40|18369|0.0005953990258592298|False|Limbažu 2. vidusskola|0|53.64|43.37|24.37|26.5|17.6|43.83
1846|rūjienasvidusskola|2513900654|Latviešu|RĪGAS IELA 30, RŪJIENA, RŪJIENAS NOVADS, LV-4240|2010|464|1|57.89435|25.3381|Naukšēnu nov.|--|Ķoņu pag.|--|2036|--|--|493.0|-29.0|0.0|0.0|-29|2036|0.017338402463894998|True|Rūjienas vidusskola|0|68.49|61.66|35.54|61.64|40.51|52.89
1847|bauskaspilsētaspamatskola|412901315|Latviešu|RĪGAS IELA 32, BAUSKA, BAUSKAS NOVADS, LV-3901|2010|281|1|56.41194|24.19269|Bauskas nov.|Bauska|--|--|26397|9786|--|295.0|-14.0|0.0|0.0|-14|26397|0.003842460149438251|True|Bauskas pilsētas pamatskola|0|79.37|-1.0|-1.0|74.44|56.65|-1.0
1848|cesvainesinternātpamatskola|4412900105|Latviešu|RĪGAS IELA 4, CESVAINE, CESVAINES NOVADS, LV-4871|2010|97|1|56.96906|26.3053|Cesvaines nov.|Cesvaine|--|--|2881|1610|--|107.0|-10.0|0.0|0.0|-10|2881|0.015668276867607404|True|Cesvaines internātpamatskola|0|52.27|-1.0|-1.0|42.6|30.44|-1.0
1850|valmieraspamatskola|2512902507|Latviešu|RĪGAS IELA 42, VALMIERA, LV-4201|2010|442|1|57.53714|25.40918|--|--|--|Valmiera|--|--|25888|415.0|27.0|0.0|0.0|27|25888|0.0015616977940654598|True|Valmieras pamatskola|0|-1.0|-1.0|-1.0|-1.0|-1.0|-1.0
1851|ropažuvidusskola|2013901112|Latviešu|RĪGAS IELA 5, ROPAŽI, ROPAŽU NOVADS, LV-2135|2010|314|1|56.97486|24.63587|Ropažu nov.|--|--|--|6802|--|--|312.0|2.0|0.0|0.0|2|6802|0.1284636201420492|True|Ropažu vidusskola|0|67.54|56.14|38.07|67.2|37.69|56.16
1852|draudzīgāaicinājumaliepājaspilsētas5vidusskola|3013900932|Latviešu|RĪGAS IELA 50, LIEPĀJA, LV-3401|2010|1228|1|56.52097|21.01735|--|--|--|Liepāja|--|--|78913|1268.0|-40.0|0.0|0.0|-40|78913|0.006992238554279274|True|Draudzīgā aicinājuma Liepājas pilsētas 5. vidusskola|0|66.68|64.52|44.96|-1.0|53.04|62.1
1853|bauskaspilsētaskristīgāpamatskola|412901318|Latviešu|RĪGAS IELA 8, BAUSKA, BAUSKAS NOVADS, LV-3901|2010|104|1|56.40984|24.18242|Bauskas nov.|Bauska|--|--|26397|9786|--|115.0|-11.0|0.0|0.0|-11|26397|0.004221291271642796|False|Bauskas pilsētas Kristīgā pamatskola|0|67.97|-1.0|-1.0|50.43|31.08|-1.0
1854|jāņazālīšasausnējaspamatskola|4412900109|Latviešu|Rīti, SAUSNĒJA, SAUSNĒJAS PAGASTS, ĒRGĻU NOVADS, LV-4841|2010|66|1|56.7996|25.70453|Ērgļu nov.|--|Sausnējas pag.|--|3322|--|--|71.0|-5.0|0.0|0.0|-5|3322|0.10982823407484699|True|Jāņa Zālīša Sausnējas pamatskola|0|62.42|-1.0|-1.0|70.67|42.07|-1.0
1855|robežniekupamatskola|1112900551|Latviešu|ROBEŽNIEKI, ROBEŽNIEKU PAGASTS, KRĀSLAVAS NOVADS, LV-5666|2010|96|1|55.97663|27.60527|Krāslavas nov.|--|Robežnieku pag.|--|18159|--|--|98.0|-2.0|0.0|0.0|-2|18159|0.050366324066781966|True|Robežnieku pamatskola|0|58.39|-1.0|-1.0|-1.0|66.15|-1.0
1841|vecumniekuvidusskola|413901290|Latviešu|RĪGAS IELA 24, VECUMNIEKI, VECUMNIEKU PAGASTS, VECUMNIEKU NOVADS, LV-3933|2010|359|1|56.6068109|24.5197427|Vecumnieku nov.|--|Vecumnieku pag.|--|9049|--|--|381.0|-22.0|0.0|0.0|-22|9049|0.06780799979427178|True|Vecumnieku vidusskola|0|62.39|53.34|42.89|55.05|44.84|55.51
1856|nautrēnuvidusskola|4213901152|Latviešu|ROGOVKA, NAUTRĒNU PAGASTS, RĒZEKNES NOVADS, LV-4652|2010|286|1|56.71099|27.41687|Rēzeknes nov.|--|Nautrēnu pag.|--|28877|--|--|322.0|-36.0|0.0|0.0|-36|28877|0.14744042356151957|True|Nautrēnu vidusskola|0|69.59|60.67|61.48|70.56|50.44|47.61
1824|remtespamatskola|4112900013|Latviešu|REMTE, REMTES PAGASTS, BROCĒNU NOVADS, LV-3871|2010|89|1|56.73921|22.70707|Brocēnu nov.|--|Remtes pag.|--|6626|--|--|77.0|12.0|0.0|0.0|12|6626|0.09998842833048287|True|Remtes pamatskola|0|63.64|-1.0|-1.0|63.75|-1.0|-1.0
1822|rāvaspamatskola|4112901032|Latviešu|RĀVA, DUNALKAS PAGASTS, DURBES NOVADS, LV-3452|2010|46|1|56.64113|21.34543|Aizputes nov.|--|Cīravas pag.|--|9675|--|--|54.0|-8.0|0.0|0.0|-8|9675|0.04583424483942505|True|Rāvas pamatskola|0|73.79|-1.0|-1.0|63.33|46.22|-1.0
1793|jelgavas4sākumskola|2811902954|Latviešu|PULKVEŽA OSKARA KALPAKA IELA 34, JELGAVA, LV-3001|2010|939|1|56.6404171|23.7176672|Jelgavas nov.|--|Jaunsvirlaukas pag.|Jelgava|25327|--|60923|984.0|-45.0|0.0|0.0|-45|25327|0.005970760776484206|True|Jelgavas 4. sākumskola|0|-1.0|-1.0|-1.0|-1.0|-1.0|-1.0
1794|pūņupamatskola|4112900612|Latviešu|PŪŅAS, VALDGALES PAGASTS, TALSU NOVADS, LV-3253|2010|112|1|57.34565|22.50083|Talsu nov.|--|Valdgales pag.|--|32262|--|--|111.0|1.0|0.0|0.0|1|32262|0.09819061054907308|True|Pūņu pamatskola|0|69.09|-1.0|-1.0|63.9|43.62|-1.0
1795|pūrespamatskola|4312900227|Latviešu|PŪRES PAGASTS, TUKUMA NOVADS, LV-3124|2010|196|1|57.03691|22.91045|Tukuma nov.|--|Pūres pag.|--|31309|--|--|196.0|0.0|0.0|0.0|0|31309|0.07764209232111313|True|Pūres pamatskola|0|77.98|-1.0|-1.0|64.67|37.04|-1.0
1796|purmsātuspeciālāinternātpamatskola|4120901034|Latviešu|Purmsātu muiža, PURMSĀTI, VIRGAS PAGASTS, PRIEKULES NOVADS, LV-3485|2010|103|1|56.40491|21.52543|Priekules nov.|--|Virgas pag.|--|6049|--|--|109.0|-6.0|0.0|0.0|-6|6049|0.05724227982881063|True|Purmsātu speciālā internātpamatskola|0|-1.0|-1.0|-1.0|-1.0|-1.0|-1.0
1797|rīgasklasiskāģimnāzija|3713900736|Krievu|PURVCIEMA IELA 38, RĪGA, LV-1035|2010|1337|1|56.95362|24.18173|--|--|--|Rīga|--|--|673433|1296.0|41.0|0.0|0.0|41|673433|0.0048627255731753145|True|Rīgas Klasiskā ģimnāzija|0|-1.0|-1.0|49.92|78.56|67.62|66.91
1798|pušmucovaspamatskola|4212900451|Latviešu|PUŠMUCOVA, PUŠMUCOVAS PAGASTS, CIBLAS NOVADS, LV-5742|2010|81|1|56.6477|27.71624|Ciblas nov.|--|Pušmucovas pag.|--|2991|--|--|89.0|-8.0|0.0|0.0|-8|2991|0.049376185555386296|True|Pušmucovas pamatskola|0|59.51|-1.0|-1.0|73.0|44.72|-1.0
1799|puzespamatskola|4112900054|Latviešu|PUZES PAGASTS, VENTSPILS NOVADS, LV-3613|2010|62|1|57.36933|22.13663|Ventspils nov.|--|Puzes pag.|--|12525|--|--|76.0|-14.0|0.0|0.0|-14|12525|0.1281313029669168|True|Puzes pamatskola|0|67.45|-1.0|-1.0|64.67|33.33|-1.0
1800|rīgasvalsts1ģimnāzija|3419900793|Latviešu|RAIŅA BULVĀRIS 8, RĪGA, LV-1050|2010|1010|1|56.95279|24.11254|--|--|--|Rīga|--|--|673433|981.0|29.0|0.0|0.0|29|673433|0.0023072927859271995|True|Rīgas Valsts 1. ģimnāzija|62|81.84|77.01|87.14|87.72|94.13|81.95
1801|valmieras2vidusskola|2513901058|LK|RAIŅA IELA 11, VALMIERA, LV-4201|2010|294|1|57.54598|25.42271|--|--|--|Valmiera|--|--|25888|327.0|-33.0|0.0|0.0|-33|25888|0.005246189093047152|True|Valmieras 2. vidusskola|0|50.48|47.79|31.35|57.94|37.31|48.93
1802|jūrmalaspilsētaskauguruvidusskola|2913901344|Krievu|RAIŅA IELA 118, JŪRMALA, LV-2016|2010|654|1|56.96155|23.6123|--|--|--|Jūrmala|--|--|51749|647.0|7.0|0.0|0.0|7|51749|0.0067904712649440365|True|Jūrmalas pilsētas Kauguru vidusskola|0|-1.0|-1.0|46.1|53.38|48.88|59.83
1803|tilžasvidusskola|313900439|Latviešu|RAIŅA IELA 15, TILŽA, TILŽAS PAGASTS, BALVU NOVADS, LV-4572|2010|178|1|56.90116|27.3647|Balvu nov.|--|Tilžas pag.|--|14643|--|--|198.0|-20.0|0.0|0.0|-20|14643|0.0029964145240549923|True|Tilžas vidusskola|0|70.32|50.47|55.85|67.91|48.87|54.1
1804|krāslavasvalstsģimnāzija|1119902694|Latviešu|RAIŅA IELA 25, KRĀSLAVA, KRĀSLAVAS NOVADS, LV-5601|2010|297|1|55.90093|27.17016|Krāslavas nov.|Krāslava|--|--|18159|9395|--|333.0|-36.0|0.0|0.0|-36|18159|0.007772322690162351|True|Krāslavas Valsts ģimnāzija|0|72.97|59.98|49.35|-1.0|63.6|57.44
1805|valkasjāņacimzesģimnāzija|4413903137|Latviešu|RAIŅA IELA 28a, VALKA, VALKAS NOVADS, LV-4701|2010|236|1|57.77467|26.01474|Valkas nov.|Valka|--|--|9608|5606|--|241.0|-5.0|0.0|0.0|-5|9608|0.005983385329391139|True|Valkas Jāņa Cimzes ģimnāzija|0|-1.0|-1.0|-1.0|-1.0|-1.0|-1.0
1823|kaunatasvidusskola|4213901076|LK|RĀZNAS IELA 17, KAUNATA, KAUNATAS PAGASTS, RĒZEKNES NOVADS, LV-4622|2010|301|1|56.49028|27.3465|Rēzeknes nov.|--|Kaunatas pag.|--|28877|--|--|303.0|-2.0|0.0|0.0|-2|28877|0.012576549606310421|True|Kaunatas vidusskola|0|63.59|52.47|42.53|58.65|40.29|57.3
1806|valmieras5vidusskola|2513901081|Latviešu|RAIŅA IELA 3, VALMIERA, LV-4201|2010|493|1|57.54083|25.42371|--|--|--|Valmiera|--|--|25888|589.0|-96.0|0.0|0.0|-96|25888|0.003482097069293373|True|Valmieras 5. vidusskola|0|62.09|52.36|29.53|59.06|36.3|51.4
1808|ilūkstesraiņavidusskola|4213903225|0|RAIŅA IELA 49, ILŪKSTE, ILŪKSTES NOVADS, LV-5447|2010|422|1|55.98314|26.28778|Ilūkstes nov.|Ilūkste|--|--|8353|2639|--|463.0|-41.0|0.0|0.0|-41|8353|0.005492549499091526|True|Ilūkstes Raiņa vidusskola|0|-1.0|-1.0|-1.0|-1.0|-1.0|-1.0
1809|liepājasvakara(maiņu)vidusskola|3014900943|LK|RAIŅA IELA 5, LIEPĀJA, LV-3401|2010|92|1|56.51512|21.01352|--|--|--|Liepāja|--|--|78913|32.0|60.0|0.0|0.0|60|78913|0.006992238554279274|True|Liepājas vakara (maiņu) vidusskola|0|60.91|44.12|20.28|45.29|39.89|33.79
1810|"jūrmalassākumskola""atvase"""|2911901882|Latviešu|RAIŅA IELA 53, JŪRMALA, LV-2011|2010|312|1|56.95241|23.61112|Babītes nov.|--|Salas pag.|Jūrmala|9219|--|51749|316.0|-4.0|0.0|0.0|-4|9219|0.0007227724399856394|True|"Jūrmalas sākumskola ""Atvase"""|0|-1.0|-1.0|-1.0|-1.0|-1.0|-1.0
1811|jūrmalasvalstsģimnāzija|2919902697|Latviešu|RAIŅA IELA 55, JŪRMALA, LV-2011|2010|430|1|56.95311|23.61094|Babītes nov.|--|Salas pag.|Jūrmala|9219|--|51749|446.0|-16.0|0.0|0.0|-16|9219|0.0007227724399856394|True|Jūrmalas Valsts ģimnāzija|0|71.93|60.71|50.36|73.13|58.22|66.23
1813|vaiņodesinternātpamatskola|4112901323|Latviešu|RAIŅA IELA 60, VAIŅODE, VAIŅODES PAGASTS, VAIŅODES NOVADS, LV-3435|2010|107|1|56.43519|21.87483|Vaiņodes nov.|--|Vaiņodes pag.|--|2712|--|--|103.0|4.0|0.0|0.0|4|2712|0.022797352916511734|True|Vaiņodes internātpamatskola|0|57.11|-1.0|-1.0|34.1|26.67|-1.0
1814|rāmuļupamatskola|4412900319|Latviešu|RĀMUĻI, VAIVES PAGASTS, CĒSU NOVADS, LV-4136|2010|80|1|57.2619|25.42647|Cēsu nov.|--|Vaives pag.|--|18852|--|--|87.0|-7.0|0.0|0.0|-7|18852|0.05914780215697224|True|Rāmuļu pamatskola|0|61.01|-1.0|-1.0|69.75|50.37|-1.0
1815|rīgasvaldorfskola|3512900779|Latviešu|RAŅĶA DAMBIS 3, RĪGA, LV-1048|2010|231|1|56.9418|24.09203|--|--|--|Rīga|--|--|673433|226.0|5.0|0.0|0.0|5|673433|0.011226896276354915|True|Rīgas Valdorfskola|0|64.12|-1.0|-1.0|73.29|52.18|-1.0
1816|rankaspamatskola|4412900955|Latviešu|RANKA, RANKAS PAGASTS, GULBENES NOVADS, LV-4416|2010|105|1|57.212|26.18738|Gulbenes nov.|--|Rankas pag.|--|23574|--|--|110.0|-5.0|0.0|0.0|-5|23574|0.10880847852993188|True|Rankas pamatskola|0|61.67|-1.0|-1.0|52.8|35.33|-1.0
1817|raudasspeciālāinternātpamatskolabērniembāreņiem|4220900521|Latviešu|RAUDA, ŠĒDERES PAGASTS, ILŪKSTES NOVADS, LV-5447|2010|45|1|55.85757|26.25287|Ilūkstes nov.|Ilūkste|--|--|8353|2639|--|44.0|1.0|0.0|0.0|1|8353|0.1229020752469194|True|Raudas speciālā internātpamatskola bērniem bāreņiem|0|-1.0|-1.0|-1.0|-1.0|-1.0|-1.0
1819|tukuma2vidusskola|4313900224|Latviešu|RAUDAS IELA 16, TUKUMS, TUKUMA NOVADS, LV-3101|2010|781|1|56.97137|23.15726|Engures nov.|--|Smārdes pag.|--|7648|--|--|836.0|-55.0|0.0|0.0|-55|7648|0.003148539343889457|True|Tukuma 2. vidusskola|0|64.07|56.62|36.21|69.0|41.52|50.54
1820|tukumainternātpamatskola|4322900223|Latviešu|RAUDAS IELA 6, TUKUMS, TUKUMA NOVADS, LV-3101|2010|133|1|56.96854|23.15588|Engures nov.|--|Smārdes pag.|--|7648|--|--|137.0|-4.0|0.0|0.0|-4|7648|0.003148539343889457|True|Tukuma internātpamatskola|0|-1.0|-1.0|-1.0|-1.0|-1.0|-1.0
1821|cēsupilsētaspastariņapamatskola|4412901845|Latviešu|RAUNAS IELA 7, CĒSIS, CĒSU NOVADS, LV-4101|2010|258|1|57.3131557|25.2783674|Amatas nov.|--|Amatas pag.|--|5882|--|--|271.0|-13.0|0.0|0.0|-13|5882|0.005800365613476643|True|Cēsu pilsētas Pastariņa pamatskola|0|-1.0|-1.0|-1.0|-1.0|-1.0|-1.0
1807|daugavpils3vidusskola|2713901037|Krievu|RAIŅA IELA 30, DAUGAVPILS, LV-5401|2010|657|1|55.86997|26.53172|--|--|--|Daugavpils|--|--|95962|656.0|1.0|0.0|0.0|1|95962|0.002008008964125229|True|Daugavpils 3. vidusskola|0|62.83|-1.0|64.89|-1.0|69.06|61.22
1857|aizputespagastapamatskola|4112901031|Latviešu|ROKASBIRZE, AIZPUTES PAGASTS, AIZPUTES NOVADS, LV-3456|2010|87|1|56.71109|21.56571|Aizputes nov.|Aizpute|--|--|9675|4773|--|91.0|-4.0|0.0|0.0|-4|9675|0.04354892650801355|True|Aizputes pagasta pamatskola|0|59.32|-1.0|-1.0|73.1|30.33|-1.0
1858|rīgas45vidusskola|3713900742|Latviešu|ROPAŽU IELA 34, RĪGA, LV-1006|2010|761|1|56.97961|24.17407|--|--|--|Rīga|--|--|673433|616.0|145.0|0.0|0.0|145|673433|0.003720228487605763|True|Rīgas 45. vidusskola|0|66.18|52.12|36.88|71.76|51.7|56.66
1859|rēzeknesnovadaspeciālāpamatskola|4220900956|0|ROZENTOVAS IELA 9, MALTA, MALTAS PAGASTS, RĒZEKNES NOVADS, LV-4630|2010|132|1|56.34214|27.18248|Rēzeknes nov.|--|Lūznavas pag.|--|28877|--|--|134.0|-2.0|0.0|0.0|-2|28877|0.02600901766695669|True|Rēzeknes novada speciālā pamatskola|0|-1.0|-1.0|-1.0|-1.0|-1.0|-1.0
1895|pelčuspeciālāinternātpamatskola-attīstībascentrs|4120901177|Latviešu|Saules stari, PELČI, PELČU PAGASTS, KULDĪGAS NOVADS, LV-3322|2010|193|1|56.91739|21.96747|Kuldīgas nov.|--|Pelču pag.|--|25518|--|--|187.0|6.0|0.0|0.0|6|25518|0.048216513768628996|True|Pelču speciālā internātpamatskola-attīstības centrs|0|-1.0|-1.0|-1.0|-1.0|-1.0|-1.0
1896|stopiņupamatskola|4312901128|Krievu|SAURIEŠI, STOPIŅU NOVADS, LV-2118|2010|107|1|56.9205|24.36682|Ropažu nov.|--|--|--|6802|--|--|97.0|10.0|0.0|0.0|10|6802|0.0140302708455688|True|Stopiņu pamatskola|0|-1.0|-1.0|-1.0|58.67|41.78|-1.0
1897|secespagastapamatskola|4512900983|Latviešu|SECE, SECES PAGASTS, JAUNJELGAVAS NOVADS, LV-5124|2010|139|1|56.56139|25.39543|Jaunjelgavas nov.|--|Seces pag.|--|5928|--|--|149.0|-10.0|0.0|0.0|-10|5928|0.08809219034625018|True|Seces pagasta pamatskola|0|69.16|-1.0|-1.0|55.08|36.86|-1.0
1898|vidučupamatskola|4212900429|Latviešu|SEMENOVA, MEDŅEVAS PAGASTS, VIĻAKAS NOVADS, LV-4586|2010|80|1|57.13582|27.64409|Viļakas nov.|--|Medņevas pag.|--|5921|--|--|85.0|-5.0|0.0|0.0|-5|5921|0.06359383382058284|True|Viduču pamatskola|0|72.18|-1.0|-1.0|-1.0|53.87|-1.0
1899|sērmūkšupamatskola|512900322|Latviešu|SĒRMŪKŠI, SKUJENES PAGASTS, AMATAS NOVADS, LV-4143|2010|53|1|57.1211|25.50924|Amatas nov.|--|Skujenes pag.|--|5882|--|--|64.0|-11.0|0.0|0.0|-11|5882|0.0510431386182303|True|Sērmūkšu pamatskola|0|-1.0|-1.0|-1.0|-1.0|-1.0|-1.0
1900|rīgas93vidusskola|3613900669|Latviešu|SESKU IELA 72, RĪGA, LV-1082|2010|483|1|56.94487|24.19118|--|--|--|Rīga|--|--|673433|525.0|-42.0|0.0|0.0|-42|673433|0.006940461079782175|True|Rīgas 93. vidusskola|0|66.42|49.23|32.06|69.51|54.41|52.83
1901|sidgundaspamatskola|4312901130|Latviešu|SIDGUNDA, MĀLPILS NOVADS, LV-2152|2010|79|1|56.96004|24.91765|Mālpils nov.|--|--|--|3751|--|--|94.0|-15.0|0.0|0.0|-15|3751|0.05151411942370696|True|Sidgundas pamatskola|0|73.11|-1.0|-1.0|65.67|45.22|-1.0
1902|morespamatskola|2012900327|Latviešu|SIGULDAS IELA 15, MORE, MORES PAGASTS, SIGULDAS NOVADS, LV-2170|2010|90|1|57.08174|25.08198|Siguldas nov.|--|Mores pag.|--|16882|--|--|100.0|-10.0|0.0|0.0|-10|16882|0.10904132886204101|True|Mores pamatskola|0|68.55|-1.0|-1.0|61.86|39.11|-1.0
1903|piejūrasinternātpamatskola|4322901045|LK|SIGUĻI, CARNIKAVAS NOVADS, LV-2163|2010|74|1|57.13511|24.30555|Ādažu nov.|--|--|--|9855|--|--|88.0|-14.0|0.0|0.0|-14|9855|0.03430854121060963|True|Piejūras internātpamatskola|0|-1.0|-1.0|-1.0|-1.0|-1.0|-1.0
1904|šdubnovarīgasebrejuvidusskola|3713900754|Krievu|SILCIEMA IELA 3, RĪGA, LV-1024|2010|192|1|56.98809|24.24018|Garkalnes nov.|--|--|Rīga|7375|--|673433|189.0|3.0|0.0|0.0|3|7375|0.0031844151739387214|True|Š. Dubnova Rīgas Ebreju vidusskola|0|-1.0|-1.0|50.29|73.25|53.33|61.62
1905|silenespamatskola|4212902413|LK|SILENE, SKRUDALIENAS PAGASTS, DAUGAVPILS NOVADS, LV-5470|2010|72|1|55.74961|26.78821|Daugavpils nov.|--|Skrudalienas pag.|--|26007|--|--|70.0|2.0|0.0|0.0|2|26007|0.0983651427081802|True|Silenes pamatskola|0|-1.0|-1.0|-1.0|62.0|67.33|-1.0
1907|rīgas47vidusskola|3813900728|Latviešu|SKAISTKALNES IELA 7, RĪGA, LV-1004|2010|573|1|56.91594|24.10306|--|--|--|Rīga|--|--|673433|617.0|-44.0|0.0|0.0|-44|673433|0.004483770734548834|True|Rīgas 47. vidusskola|0|61.18|57.04|37.66|67.83|49.24|55.81
1908|šķaunespamatskola|4212900559|Latviešu|ŠĶAUNE, ŠĶAUNES PAGASTS, DAGDAS NOVADS, LV-5695|2010|42|1|56.1387|28.00402|Dagdas nov.|--|Šķaunes pag.|--|8596|--|--|31.0|11.0|0.0|0.0|11|8596|0.004167505248944838|True|Šķaunes pamatskola|0|-1.0|-1.0|-1.0|-1.0|-1.0|-1.0
1894|daugavpilssaskaņaspamatskola|2712901237|LK|SAULES IELA 7, DAUGAVPILS, LV-5401|2010|468|1|55.8692|26.51312|--|--|--|Daugavpils|--|--|95962|452.0|16.0|0.0|0.0|16|95962|0.002294558781118094|True|Daugavpils Saskaņas pamatskola|0|71.16|-1.0|-1.0|70.88|74.3|-1.0
1909|vaivarupamatskola|2912901441|Latviešu|SKAUTU IELA 2, JŪRMALA, LV-2008|2010|134|1|56.95966|23.66366|--|--|--|Jūrmala|--|--|51749|146.0|-12.0|0.0|0.0|-12|51749|0.04075953998758684|True|Vaivaru pamatskola|0|-1.0|-1.0|-1.0|75.9|-1.0|-1.0
1911|īslīcesvidusskola|413901288|Latviešu|SKOLAS IELA 1, BĒRZI, ĪSLĪCES PAGASTS, BAUSKAS NOVADS, LV-3901|2010|295|1|56.34518|24.112|Bauskas nov.|Bauska|--|--|26397|9786|--|317.0|-22.0|0.0|0.0|-22|26397|0.0024328172968811844|True|Īslīces vidusskola|0|61.07|58.84|35.62|58.64|36.67|53.93
1912|biķerniekupamatskola|4212900504|Krievu|SKOLAS IELA 1, BIĶERNIEKI, BIĶERNIEKU PAGASTS, DAUGAVPILS NOVADS, LV-5440|2010|80|1|55.97183|26.82054|Daugavpils nov.|--|Biķernieku pag.|--|26007|--|--|84.0|-4.0|0.0|0.0|-4|26007|0.07476877222477221|True|Biķernieku pamatskola|0|-1.0|-1.0|-1.0|51.92|48.78|-1.0
1913|birzgalespamatskola|4312901328|Latviešu|SKOLAS IELA 1, BIRZGALE, BIRZGALES PAGASTS, ĶEGUMA NOVADS, LV-5033|2010|103|1|56.6299|24.75982|Ķeguma nov.|--|Birzgales pag.|--|5876|--|--|110.0|-7.0|0.0|0.0|-7|5876|0.10285388665480953|True|Birzgales pamatskola|0|71.12|-1.0|-1.0|58.0|48.72|-1.0
1914|blīdenespamatskola|4112900414|Latviešu|SKOLAS IELA 1, BLĪDENE, BLĪDENES PAGASTS, BROCĒNU NOVADS, LV-3852|2010|95|1|56.64979|22.7979|Brocēnu nov.|--|Blīdenes pag.|--|6626|--|--|0.0|0.0|0.0|0.0|95|6626|0.12745989683033201|True|Blīdenes pamatskola|0|65.06|-1.0|-1.0|62.31|46.0|-1.0
1916|mazzalvespamatskola|4512900978|Latviešu|SKOLAS IELA 1, ĒRBERĢE, MAZZALVES PAGASTS, NERETAS NOVADS, LV-5133|2010|109|1|56.36478|25.01728|Neretas nov.|--|Mazzalves pag.|--|4042|--|--|128.0|-19.0|0.0|0.0|-19|4042|0.18198894087279033|True|Mazzalves pamatskola|0|63.58|-1.0|-1.0|49.0|33.33|-1.0
1917|grobiņasģimnāzija|4116902610|Latviešu|SKOLAS IELA 1, GROBIŅA, GROBIŅAS NOVADS, LV-3430|2010|265|1|56.53644|21.16725|Durbes nov.|--|Tadaiķu pag.|Liepāja|3184|--|78913|309.0|-44.0|0.0|0.0|-44|3184|0.001097861557756735|True|Grobiņas ģimnāzija|2|69.66|54.74|43.94|73.46|58.61|58.31
1920|indraspamatskola|4213900574|Latviešu|SKOLAS IELA 1, INDRA, INDRAS PAGASTS, KRĀSLAVAS NOVADS, LV-5664|2010|135|1|55.87805|27.54068|Krāslavas nov.|--|Indras pag.|--|18159|--|--|134.0|1.0|0.0|0.0|1|18159|0.11785535414227054|True|Indras pamatskola|0|-1.0|-1.0|-1.0|-1.0|-1.0|-1.0
1922|kalvenespamatskola|1312901020|Latviešu|SKOLAS IELA 1, KALVENE, KALVENES PAGASTS, AIZPUTES NOVADS, LV-3443|2010|71|1|56.60404|21.73035|Aizputes nov.|--|Kalvenes pag.|--|9675|--|--|71.0|0.0|0.0|0.0|0|9675|0.11708157839728972|True|Kalvenes pamatskola|0|77.69|-1.0|-1.0|67.8|51.27|-1.0
1923|sūnupamatskola|4512900284|Latviešu|SKOLAS IELA 1, KŪKAS, KŪKU PAGASTS, KRUSTPILS NOVADS, LV-5222|2010|90|1|56.54361|26.09109|Krustpils nov.|--|Kūku pag.|--|6244|--|--|86.0|4.0|0.0|0.0|4|6244|0.07666803571241804|True|Sūnu pamatskola|0|62.53|-1.0|-1.0|69.8|52.74|-1.0
1924|saldusnovadapašvaldībaslutriņupamatskola|4112900012|Latviešu|SKOLAS IELA 1, LUTRIŅI, LUTRIŅU PAGASTS, SALDUS NOVADS, LV-3861|2010|119|1|56.73066|22.3964|Saldus nov.|--|Lutriņu pag.|--|26579|--|--|135.0|-16.0|0.0|0.0|-16|26579|0.05835146099284891|True|Saldus novada pašvaldības Lutriņu pamatskola|0|51.62|-1.0|-1.0|57.64|47.62|-1.0
1910|barkavaspamatskola|4412900126|Latviešu|SKOLAS IELA 1, BARKAVA, BARKAVAS PAGASTS, MADONAS NOVADS, LV-4834|2010|93|1|56.72632|26.60674|Madonas nov.|--|Barkavas pag.|--|25888|--|--|102.0|-9.0|0.0|0.0|-9|25888|0.0708426213518383|True|Barkavas pamatskola|0|77.56|-1.0|-1.0|73.5|63.83|-1.0
1892|dienasapmācībasklasespieventspilsvakaravidusskolas|3214900038|LK|SAULES IELA 37, VENTSPILS, LV-3601|2010|95|1|57.38806|21.55836|Ventspils nov.|--|Ances pag.|Ventspils|12525|--|39881|92.0|3.0|0.0|0.0|3|12525|0.004938714407614018|True|Dienas apmācības klases pie Ventspils vakara vidusskolas|0|-1.0|-1.0|-1.0|-1.0|-1.0|-1.0
1891|vispārējāsvidējāsizglītībasizlīdzinošāprogrammapieventspilsprofesionālāvidusskolas|3231001525|Latviešu|SAULES IELA 15, VENTSPILS, LV-3601|2010|27|1|57.39253|21.56046|Ventspils nov.|--|Ances pag.|Ventspils|12525|--|39881|33.0|-6.0|0.0|0.0|-6|12525|0.0039578276869986755|False|Vispārējās vidējās izglītības izlīdzinošā programma pie Ventspils Profesionālā vidusskolas|0|-1.0|-1.0|-1.0|-1.0|-1.0|-1.0
1860|saldusnovadapašvaldībasrubaspamatskola|4112900627|Latviešu|RUBA, RUBAS PAGASTS, SALDUS NOVADS, LV-3894|2010|130|1|56.38249|22.62441|Saldus nov.|--|Rubas pag.|--|26579|--|--|125.0|5.0|0.0|0.0|5|26579|0.24420454745971323|True|Saldus novada pašvaldības Rubas pamatskola|0|64.55|-1.0|-1.0|51.87|41.41|-1.0
1862|rucavaspamatskola|4112902528|Latviešu|RUCAVA, RUCAVAS PAGASTS, RUCAVAS NOVADS, LV-3477|2010|76|1|56.15901|21.16154|Rucavas nov.|--|Rucavas pag.|--|1888|--|--|84.0|-8.0|0.0|0.0|-8|1888|0.2033025531074311|True|Rucavas pamatskola|0|69.34|-1.0|-1.0|65.0|59.39|-1.0
1863|oskarakalpakarudbāržupamatskola|4112901183|Latviešu|RUDBĀRŽI, RUDBĀRŽU PAGASTS, SKRUNDAS NOVADS, LV-3324|2010|79|1|56.64072|21.88878|Skrundas nov.|--|Rudbāržu pag.|--|5515|--|--|86.0|-7.0|0.0|0.0|-7|5515|0.005414471350004659|True|Oskara Kalpaka Rudbāržu pamatskola|0|59.9|-1.0|-1.0|54.63|33.19|-1.0
1864|rudbāržuinternātpamatskola-rehabilitācijascentrs|4123900928|Latviešu|RUDBĀRŽI, RUDBĀRŽU PAGASTS, SKRUNDAS NOVADS, LV-3324|2010|67|1|56.64072|21.88878|Skrundas nov.|--|Rudbāržu pag.|--|5515|--|--|86.0|-19.0|0.0|0.0|-19|5515|0.005414471350004659|True|Rudbāržu internātpamatskola - rehabilitācijas centrs|0|-1.0|-1.0|-1.0|-1.0|-1.0|-1.0
1865|rudespamatskola|4112901024|Latviešu|RUDE, OTAŅĶU PAGASTS, NĪCAS NOVADS, LV-3475|2010|53|1|56.37471|21.09306|Nīcas nov.|--|Otaņķu pag.|--|3667|--|--|60.0|-7.0|0.0|0.0|-7|3667|0.0026847904946236028|True|Rudes pamatskola|0|74.05|-1.0|-1.0|65.8|49.58|-1.0
1866|jēkabpilspoļupamatskola|1012900274|Poļu|RŪDOLFA BLAUMAŅA IELA 27, JĒKABPILS, LV-5201|2010|94|1|56.4994|25.85479|--|--|--|Jēkabpils|--|--|25233|88.0|6.0|0.0|0.0|6|25233|0.00765836144354799|False|Jēkabpils Poļu pamatskola|0|-1.0|-1.0|-1.0|55.33|43.56|-1.0
1867|pededzespamatskola|4412900912|LK|Rūķi, PEDEDZE, PEDEDZES PAGASTS, ALŪKSNES NOVADS, LV-4352|2010|83|1|57.48127|27.44809|Alūksnes nov.|--|Pededzes pag.|--|17712|--|--|88.0|-5.0|0.0|0.0|-5|17712|0.1387712798096226|True|Pededzes pamatskola|0|63.51|-1.0|-1.0|66.33|59.05|-1.0
1868|gaismasspeciālāinternātpamatskola|4320901127|Latviešu|RUMBULA, STOPIŅU NOVADS, LV-2121|2010|79|1|56.89315|24.21942|Salaspils nov.|Salaspils|--|--|22527|17394|--|85.0|-6.0|0.0|0.0|-6|22527|0.015046145685854993|True|Gaismas speciālā internātpamatskola|0|-1.0|-1.0|-1.0|-1.0|-1.0|-1.0
1869|pilsrundālesvidusskola|4513901324|Latviešu|RUNDĀLES PAGASTS, RUNDĀLES NOVADS, LV-3921|2010|370|1|56.41973|24.01058|Rundāles nov.|--|Rundāles pag.|--|3833|--|--|383.0|-13.0|0.0|0.0|-13|3833|0.05209692217396153|True|Pilsrundāles vidusskola|0|64.55|61.4|61.71|65.68|60.6|61.61
1870|rēzeknes5vidusskola|3113900065|Latviešu|RŪPNĪCAS IELA 11a, RĒZEKNE, LV-4604|2010|683|1|56.52573|27.35013|Rēzeknes nov.|--|Lendžu pag.|Rēzekne|28877|--|33456|730.0|-47.0|0.0|0.0|-47|28877|0.00587676781913373|True|Rēzeknes 5. vidusskola|2|66.93|67.52|62.02|71.38|54.95|63.07
1871|liepaspamatskola|4412900324|LK|RŪPNĪCAS IELA 12, LIEPA, LIEPAS PAGASTS, PRIEKUĻU NOVADS, LV-4128|2010|219|1|57.38667|25.42113|Priekuļu nov.|--|Liepas pag.|--|8669|--|--|217.0|2.0|0.0|0.0|2|8669|0.09449254626688867|True|Liepas pamatskola|0|-1.0|-1.0|-1.0|-1.0|-1.0|-1.0
1872|kupravaspamatskola|4212900424|Latviešu|RŪPNĪCAS IELA 7, KUPRAVA, KUPRAVAS PAGASTS, VIĻAKAS NOVADS, LV-4582|2010|20|1|57.23456|27.49475|Balvu nov.|--|Vīksnas pag.|--|14643|--|--|24.0|-4.0|0.0|0.0|-4|14643|0.1089355268037018|True|Kupravas pamatskola|0|-1.0|-1.0|-1.0|-1.0|-1.0|-1.0
1873|aizkrauklespilsētassākumskola|111900990|Latviešu|RŪPNIECĪBAS IELA 10, AIZKRAUKLE, AIZKRAUKLES NOVADS, LV-5101|2010|340|1|56.60022|25.24275|Aizkraukles nov.|Aizkraukle|--|--|9277|8109|--|355.0|-15.0|0.0|0.0|-15|9277|0.004288228072292472|True|Aizkraukles pilsētas sākumskola|0|-1.0|-1.0|-1.0|-1.0|-1.0|-1.0
1874|jūrmalaspilsētasmežmalasvidusskola|2913901348|Krievu|RŪPNIECĪBAS IELA 13, JŪRMALA, LV-2016|2010|364|1|56.95743|23.62156|--|--|--|Jūrmala|--|--|51749|388.0|-24.0|0.0|0.0|-24|51749|0.010135186234103371|True|Jūrmalas pilsētas Mežmalas vidusskola|0|-1.0|-1.0|31.25|44.18|53.25|34.85
1876|rīgaszolitūdesģimnāzija|3813900724|Krievu|RUSES IELA 22, RĪGA, LV-1029|2010|1352|1|56.94647|24.00789|--|--|--|Rīga|--|--|673433|1324.0|28.0|0.0|0.0|28|673433|0.0051300877185494935|True|Rīgas Zolitūdes ģimnāzija|4|-1.0|-1.0|52.79|68.68|62.22|62.57
1890|konstantinovassākumskola|4211900554|Latviešu|SAULES IELA 15, KONSTANTINOVA, KONSTANTINOVAS PAGASTS, DAGDAS NOVADS, LV-5680|2010|25|1|56.05763|27.43648|Dagdas nov.|--|Konstantinovas pag.|--|8596|--|--|30.0|-5.0|0.0|0.0|-5|8596|0.0069027096128929195|True|Konstantinovas sākumskola|0|-1.0|-1.0|-1.0|-1.0|-1.0|-1.0
1889|izvaltaspamatskola|1112900563|Latviešu|SAULES IELA 1, IZVALTA, IZVALTAS PAGASTS, KRĀSLAVAS NOVADS, LV-5652|2010|72|1|55.95733|27.02457|Krāslavas nov.|--|Izvaltas pag.|--|18159|--|--|83.0|-11.0|0.0|0.0|-11|18159|0.0695293700532408|True|Izvaltas pamatskola|0|57.85|-1.0|-1.0|65.33|48.85|-1.0
1888|saldusnovadapašvaldībassātiņupamatskola|4112901050|Latviešu|SĀTIŅI, NOVADNIEKU PAGASTS, LV-3801|2010|95|1|56.64545|22.39105|Saldus nov.|Saldus|--|--|26579|11735|--|101.0|-6.0|0.0|0.0|-6|26579|0.04378267351361849|True|Saldus novada pašvaldības Sātiņu pamatskola|0|52.95|-1.0|-1.0|41.89|51.56|-1.0
1887|jelgavas2pamatskola|2812900143|Krievu|SARMAS IELA 2, JELGAVA, LV-3001|2010|507|1|56.64566|23.70904|Jelgavas nov.|--|Jaunsvirlaukas pag.|Jelgava|25327|--|60923|509.0|-2.0|0.0|0.0|-2|25327|0.0020709901013741747|True|Jelgavas 2. pamatskola|0|-1.0|-1.0|-1.0|69.73|62.93|-1.0
1886|ventspils6vidusskola|3213900037|LK|SARKANMUIŽAS DAMBIS 1, VENTSPILS, LV-3601|2010|768|1|57.39324|21.57171|Ventspils nov.|--|Ances pag.|Ventspils|12525|--|39881|782.0|-14.0|0.0|0.0|-14|12525|0.0018777113729256925|True|Ventspils 6. vidusskola|0|71.2|46.41|40.71|58.59|39.3|48.33
1885|sarkaņupamatskola|4412900110|Latviešu|SARKAŅI, SARKAŅU PAGASTS, MADONAS NOVADS, LV-4870|2010|46|1|56.88048|26.26335|Madonas nov.|--|Sarkaņu pag.|--|25888|--|--|54.0|-8.0|0.0|0.0|-8|25888|0.05074514065405491|True|Sarkaņu pamatskola|0|63.64|-1.0|-1.0|62.38|55.5|-1.0
1791|rīgas13vidusskola|3913900817|Krievu|PULKVEŽA BRIEŽA IELA 25, RĪGA, LV-1010|2010|520|1|56.9624|24.10544|--|--|--|Rīga|--|--|673433|508.0|12.0|0.0|0.0|12|673433|0.0021709214633403866|True|Rīgas 13. vidusskola|2|-1.0|-1.0|46.08|60.74|53.08|57.27
1884|puškinalicejs|3913900821|Krievu|SARKANDAUGAVAS IELA 22, RĪGA, LV-1005|2010|779|1|56.99879|24.12471|--|--|--|Rīga|--|--|673433|788.0|-9.0|0.0|0.0|-9|673433|0.007135495778153879|True|Puškina licejs|0|-1.0|-1.0|49.76|60.38|66.7|63.76
1882|salnavaspamatskola|4212900450|Latviešu|SALNAVA, SALNAVAS PAGASTS, KĀRSAVAS NOVADS, LV-5740|2010|76|1|56.81654|27.55391|Kārsavas nov.|--|Salnavas pag.|--|6512|--|--|88.0|-12.0|0.0|0.0|-12|6512|0.14151529705300572|True|Salnavas pamatskola|0|58.43|-1.0|-1.0|-1.0|43.39|-1.0
1878|rīgas25vidusskola|3613900678|Latviešu|RUŠONU IELA 6, RĪGA, LV-1057|2010|805|1|56.91132|24.18246|Stopiņu nov.|--|--|Rīga|9924|--|673433|864.0|-59.0|0.0|0.0|-59|9924|0.003377839546223564|True|Rīgas 25. vidusskola|0|-1.0|55.34|37.67|71.76|57.44|58.64
1877|aglonasinternātvidusskola|4213900380|Latviešu|RUŠONAS IELA 11, JAUNAGLONA, AGLONAS PAGASTS, AGLONAS NOVADS, LV-5304|2010|132|1|56.1629|26.99638|Aglonas nov.|--|Aglonas pag.|--|4132|--|--|139.0|-7.0|0.0|0.0|-7|4132|0.0278129646028641|True|Aglonas internātvidusskola|0|60.78|53.53|44.2|71.5|49.52|40.62
1883|rīgasšampēteravidusskola|3813902514|LK|ŠAMPĒTERA IELA 98, RĪGA, LV-1046|2010|249|1|56.93673|24.02236|--|--|--|Rīga|--|--|673433|244.0|5.0|0.0|0.0|5|673433|0.007020434459489016|True|Rīgas Šampētera vidusskola|0|-1.0|34.19|38.72|48.19|48.75|42.34
1790|siguldas1pamatskola|2012901089|Latviešu|PULKVEŽA BRIEŽA IELA 105, SIGULDA, SIGULDAS NOVADS, LV-2150|2010|401|1|57.15394|24.88215|Krimuldas nov.|--|Krimuldas pag.|--|5425|--|--|427.0|-26.0|0.0|0.0|-26|5425|0.016163422496797773|True|Siguldas 1. pamatskola|0|68.03|-1.0|-1.0|65.79|42.79|-1.0
1789|puikulespamatskola|4312900173|Latviešu|PUIKULE, BRĪVZEMNIEKU PAGASTS, ALOJAS NOVADS, LV-4063|2010|52|1|57.68656|24.88354|Alojas nov.|--|Brīvzemnieku pag.|--|5569|--|--|54.0|-2.0|0.0|0.0|-2|5569|0.07831285590501559|True|Puikules pamatskola|0|53.9|-1.0|-1.0|57.43|58.86|-1.0
1788|ramatassākumskola|4411902431|Latviešu|Pūcītes, RAMATA, RAMATAS PAGASTS, MAZSALACAS NOVADS, LV-4216|2010|29|1|57.9501|25.00997|Mazsalacas nov.|--|Ramatas pag.|--|3613|--|--|29.0|0.0|0.0|0.0|0|3613|0.09247334091255904|True|Ramatas sākumskola|0|-1.0|-1.0|-1.0|-1.0|-1.0|-1.0
1690|laucesaspamatskola|4212903120|Krievu|MIERA IELA 28, MIRNIJS, LAUCESAS PAGASTS, DAUGAVPILS NOVADS, LV-5461|2010|69|1|55.82182|26.5974|Daugavpils nov.|--|Laucesas pag.|--|26007|--|--|66.0|3.0|0.0|0.0|3|26007|0.07077915300425548|True|Laucesas pamatskola|0|-1.0|-1.0|-1.0|-1.0|-1.0|-1.0
1691|rīgas19vidusskola|3513900771|Latviešu|MIGLAS IELA 9, RĪGA, LV-1016|2010|363|1|57.03625|24.0461|--|--|--|Rīga|--|--|673433|380.0|-17.0|0.0|0.0|-17|673433|0.006555676929195792|True|Rīgas 19. vidusskola|0|60.61|48.67|26.48|57.62|40.93|57.33
1692|milzkalnessākumskola|4311900252|Latviešu|MILZKALNE, SMĀRDES PAGASTS, ENGURES NOVADS, LV-3148|2010|67|1|56.97746|23.22553|Engures nov.|--|Smārdes pag.|--|7648|--|--|66.0|1.0|0.0|0.0|1|7648|0.06854108986585906|True|Milzkalnes sākumskola|0|-1.0|-1.0|-1.0|-1.0|-1.0|-1.0
1693|misasvidusskola|413901293|Latviešu|MISA, VECUMNIEKU PAGASTS, VECUMNIEKU NOVADS, LV-3906|2010|193|1|56.59008|24.39553|Vecumnieku nov.|--|Vecumnieku pag.|--|9049|--|--|202.0|-9.0|0.0|0.0|-9|9049|0.12533442406657216|True|Misas vidusskola|0|-1.0|51.84|25.54|69.33|41.84|44.59
1694|kuldīgascentravidusskola|4113901192|Latviešu|MUCENIEKU IELA 6, KULDĪGA, KULDĪGAS NOVADS, LV-3301|2010|644|1|56.96636|21.96525|Kuldīgas nov.|Kuldīga|--|--|25518|12067|--|734.0|-90.0|0.0|0.0|-90|25518|0.002312509459440412|True|Kuldīgas Centra vidusskola|0|64.99|57.83|42.75|64.84|49.07|52.54
1696|sējaspamatskola|2012901114|Latviešu|MURJĀŅI, SĒJAS NOVADS, LV-2142|2010|108|1|57.13283|24.66395|Krimuldas nov.|--|Krimuldas pag.|--|5425|--|--|115.0|-7.0|0.0|0.0|-7|5425|0.036337264619121665|True|Sējas pamatskola|0|64.34|-1.0|-1.0|57.56|37.74|-1.0
1697|privātskola„innova”|3613802628|Krievu|MŪRNIEKU IELA 7, RĪGA, LV-1009|2010|66|1|56.95274|24.14577|--|--|--|Rīga|--|--|673433|52.0|14.0|0.0|0.0|14|673433|0.0054551443610607485|False|Privātskola „Innova”|0|-1.0|-1.0|-1.0|-1.0|-1.0|-1.0
1698|lāčupamatskola|4212900506|LK|MUZEJA IELA 2, LOCIKI, NAUJENES PAGASTS, DAUGAVPILS NOVADS, LV-5458|2010|133|1|55.94202|26.65046|Daugavpils nov.|--|Naujenes pag.|--|26007|--|--|148.0|-15.0|0.0|0.0|-15|26007|0.07588414458897305|True|Lāču pamatskola|0|61.91|-1.0|-1.0|52.56|57.76|-1.0
1699|krāslavasvaravīksnesvidusskola|1113900576|LK|N. RANCĀNA IELA 4, KRĀSLAVA, KRĀSLAVAS NOVADS, LV-5601|2010|588|1|55.89279|27.17878|Krāslavas nov.|Krāslava|--|--|18159|9395|--|637.0|-49.0|0.0|0.0|-49|18159|0.007995311125904717|True|Krāslavas Varavīksnes vidusskola|0|-1.0|31.45|44.04|46.1|49.41|41.74
1700|carnikavaspamatskola|2012901110|Latviešu|NĀKOTNES IELA 1, CARNIKAVA, CARNIKAVAS NOVADS, LV-2163|2010|207|1|57.12889|24.27181|Ādažu nov.|--|--|--|9855|--|--|215.0|-8.0|0.0|0.0|-8|9855|0.03430854121060963|True|Carnikavas pamatskola|0|76.01|-1.0|-1.0|66.79|63.19|-1.0
1701|dekšārupamatskola|4212901166|Latviešu|NĀKOTNES IELA 2, DEKŠĀRES, DEKŠĀRES PAGASTS, VIĻĀNU NOVADS, LV-4614|2010|94|1|56.57209|26.80195|Viļānu nov.|--|Dekšāres pag.|--|6585|--|--|99.0|-5.0|0.0|0.0|-5|6585|0.05310561646379488|True|Dekšāru pamatskola|0|63.18|-1.0|-1.0|79.0|49.52|-1.0
1702|"privātāpamatskola""gaismastilts97"""|4312802726|Latviešu|NĀKOTNES IELA 3, ĶEKAVA, ĶEKAVAS PAGASTS, ĶEKAVAS NOVADS, LV-2123|2010|92|1|56.8253|24.23756|Ķekavas nov.|--|Ķekavas pag.|--|21500|--|--|98.0|-6.0|0.0|0.0|-6|21500|0.00737794009192275|True|"Privātā pamatskola ""Gaismas tilts 97"""|0|83.07|-1.0|-1.0|75.63|74.67|-1.0
1688|rudzātuvidusskola|4213900378|Latviešu|MIERA IELA 13, RUDZĀTI, RUDZĀTU PAGASTS, LĪVĀNU NOVADS, LV-5328|2010|115|1|56.41674|26.46271|Līvānu nov.|--|Rožupes pag.|--|13003|--|--|121.0|-6.0|0.0|0.0|-6|13003|0.011619371755825291|True|Rudzātu vidusskola|0|74.0|60.8|59.68|65.8|69.73|53.5
1703|ogresgalapamatskola|4312900194|Latviešu|NĀKOTNES IELA 4, OGRESGALS, OGRESGALA PAGASTS, OGRES NOVADS, LV-5041|2010|160|1|56.79564|24.73957|Ogres nov.|Ogre|--|--|36984|25301|--|158.0|2.0|0.0|0.0|2|36984|0.05485283675435773|True|Ogresgala pamatskola|0|62.56|-1.0|-1.0|68.2|37.92|-1.0
1705|"sociālāskorekcijasizglītībasiestāde""naukšēni"""|4418000073|Latviešu|Naukšēnu muiža, NAUKŠĒNU PAGASTS, NAUKŠĒNU NOVADS, LV-4244|2010|31|1|57.88315|25.44703|Naukšēnu nov.|--|Naukšēnu pag.|--|2036|--|--|16.0|15.0|0.0|0.0|15|2036|0.019097879463435632|True|"Sociālās korekcijas izglītības iestāde ""Naukšēni"""|0|71.82|-1.0|-1.0|-1.0|41.33|-1.0
1706|naukšēnunovadavidusskola|4413902802|Latviešu|NAUKŠĒNU PAGASTS, NAUKŠĒNU NOVADS, LV-4244|2010|250|1|57.88498|25.46604|Naukšēnu nov.|--|Naukšēnu pag.|--|2036|--|--|225.0|25.0|0.0|0.0|25|2036|0.019097879463435632|True|Naukšēnu novada vidusskola|0|-1.0|-1.0|-1.0|-1.0|-1.0|-1.0
1707|rīgasitaskozakēvičaspoļuvidusskola|3713900789|Poļu|NĪCGALES IELA 15, RĪGA, LV-1035|2010|278|1|56.95647|24.17779|--|--|--|Rīga|--|--|673433|275.0|3.0|0.0|0.0|3|673433|0.0048627255731753145|True|Rīgas Itas Kozakēvičas Poļu vidusskola|0|-1.0|-1.0|45.29|63.44|58.57|52.6
1708|rīgas85vidusskola|3713900738|Latviešu|NĪCGALES IELA 22, RĪGA, LV-1035|2010|394|1|56.9543401|24.1721556|--|--|--|Rīga|--|--|673433|413.0|-19.0|0.0|0.0|-19|673433|0.002453947711346162|True|Rīgas 85. vidusskola|0|60.54|61.89|35.42|73.18|41.21|63.46
1710|nīkrācespamatskola|4112901185|Latviešu|NĪKRĀCE, NĪKRĀCES PAGASTS, SKRUNDAS NOVADS, LV-3320|2010|74|1|56.53432|21.94168|Skrundas nov.|--|Nīkrāces pag.|--|5515|--|--|69.0|5.0|0.0|0.0|5|5515|0.1188249552913876|True|Nīkrāces pamatskola|0|-1.0|-1.0|-1.0|-1.0|-1.0|-1.0
1711|nirzaspamatskola|4212900456|Latviešu|NIRZA, NIRZAS PAGASTS, LUDZAS NOVADS, LV-5729|2010|80|1|56.40427|27.93176|Ludzas nov.|--|Isnaudas pag.|--|14751|--|--|84.0|-4.0|0.0|0.0|-4|14751|0.1506616620112753|True|Nirzas pamatskola|0|57.77|-1.0|-1.0|70.33|37.09|-1.0
1712|nītauresvidusskola|4413900335|Latviešu|NĪTAURE, NĪTAURES PAGASTS, AMATAS NOVADS, LV-4112|2010|115|1|57.06707|25.19003|Amatas nov.|--|Nītaures pag.|--|5882|--|--|124.0|-9.0|0.0|0.0|-9|5882|0.10227218634604511|True|Nītaures vidusskola|0|-1.0|58.37|28.27|-1.0|-1.0|49.23
1713|ņukšupamatskola|4212900455|Latviešu|ŅUKŠI, ŅUKŠU PAGASTS, LUDZAS NOVADS, LV-5730|2010|40|1|56.45608|27.72934|Ludzas nov.|--|Ņukšu pag.|--|14751|--|--|46.0|-6.0|0.0|0.0|-6|14751|0.051523793532694644|False|Ņukšu pamatskola|0|64.18|-1.0|-1.0|67.5|44.0|-1.0
1714|rīgas75vidusskola|3613900682|Krievu|OGRES IELA 9, RĪGA, LV-1019|2010|630|1|56.92706|24.16382|--|--|--|Rīga|--|--|673433|649.0|-19.0|0.0|0.0|-19|673433|0.006494459176869931|True|Rīgas 75. vidusskola|0|-1.0|-1.0|40.96|54.11|39.85|52.04
1715|rīgaskatoļuģimnāzija|3813801134|Latviešu|OJĀRA VĀCIEŠA IELA 6, RĪGA, LV-1004|2010|69|1|56.92999|24.08286|--|--|--|Rīga|--|--|673433|109.0|-40.0|0.0|0.0|-40|673433|0.0012567020331016635|True|Rīgas Katoļu ģimnāzija|0|73.64|56.49|39.74|68.57|39.67|51.85
1716|variņupamatskola|2412901219|Latviešu|OKTOBRA IELA 13, VARIŅI, VARIŅU PAGASTS, SMILTENES NOVADS, LV-4726|2010|87|1|57.31925|26.16903|Apes nov.|--|Virešu pag.|--|3984|--|--|92.0|-5.0|0.0|0.0|-5|3984|0.07111042820853165|True|Variņu pamatskola|0|71.75|-1.0|-1.0|65.5|50.77|-1.0
1717|taborespamatskola|4212900509|Krievu|OKTOBRA IELA 39, TABORE, TABORES PAGASTS, DAUGAVPILS NOVADS, LV-5465|2010|57|1|55.86687|26.66099|Daugavpils nov.|--|Tabores pag.|--|26007|--|--|58.0|-1.0|0.0|0.0|-1|26007|0.07469892167896003|True|Tabores pamatskola|0|-1.0|-1.0|-1.0|54.3|62.93|-1.0
1718|ērgļuvidusskola|4413900131|Latviešu|OŠKALNA IELA 6, ĒRGĻI, ĒRGĻU PAGASTS, ĒRGĻU NOVADS, LV-4840|2010|265|1|56.90213|25.64576|Ērgļu nov.|--|Ērgļu pag.|--|3322|--|--|290.0|-25.0|0.0|0.0|-25|3322|0.11817915975331782|True|Ērgļu vidusskola|0|62.45|63.34|50.82|69.67|46.02|60.09
1704|naudītespamatskola|4512900608|Latviešu|NAUDĪTE, NAUDĪTES PAGASTS, DOBELES NOVADS, LV-3724|2010|81|1|56.53545|23.19549|Dobeles nov.|--|Naudītes pag.|--|22874|--|--|87.0|-6.0|0.0|0.0|-6|22874|0.052047294838443475|True|Naudītes pamatskola|0|62.05|-1.0|-1.0|57.86|47.56|-1.0
1687|jaunstrūžānupamatskola|4212901156|Latviešu|MIERA IELA 12, STRŪŽĀNI, STRUŽĀNU PAGASTS, RĒZEKNES NOVADS, LV-4643|2010|93|1|56.6952|27.23659|Rēzeknes nov.|--|Stružānu pag.|--|28877|--|--|94.0|-1.0|0.0|0.0|-1|28877|0.06529300804833588|True|Jaunstrūžānu pamatskola|0|58.94|-1.0|-1.0|-1.0|56.72|-1.0
1686|dagdasvidusskola|4213900573|LK|MIČURINA IELA 3a, DAGDA, DAGDAS NOVADS, LV-5674|2010|472|1|56.0977|27.53314|Dagdas nov.|Dagda|--|--|8596|2432|--|524.0|-52.0|0.0|0.0|-52|8596|0.0717849343525502|True|Dagdas vidusskola|2|66.0|59.16|55.13|66.94|54.78|46.75
1685|mežotnespamatskola|4512901310|Latviešu|MEŽOTNE, MEŽOTNES PAGASTS, BAUSKAS NOVADS, LV-3918|2010|87|1|56.44235|24.05751|Bauskas nov.|--|Mežotnes pag.|--|26397|--|--|86.0|1.0|0.0|0.0|1|26397|0.0002751363298481272|True|Mežotnes pamatskola|0|59.9|-1.0|-1.0|60.25|40.89|-1.0
1655|ziemerupamatskola|4412900914|Latviešu|MĀRIŅKALNS, ZIEMERU PAGASTS, ALŪKSNES NOVADS, LV-4332|2010|112|1|57.48815|26.97841|Alūksnes nov.|--|Ziemera pag.|--|17712|--|--|118.0|-6.0|0.0|0.0|-6|17712|0.08835065861802988|True|Ziemeru pamatskola|0|59.94|-1.0|-1.0|49.33|37.42|-1.0
1657|rīgaslastādijasinternātpamatskola|3612902818|LK|MASKAVAS IELA 178, RĪGA, LV-1019|2010|254|1|56.9328|24.15981|--|--|--|Rīga|--|--|673433|132.0|122.0|0.0|0.0|122|673433|0.0014468241081752277|True|Rīgas Lastādijas internātpamatskola|0|-1.0|-1.0|-1.0|-1.0|-1.0|-1.0
1658|andrejapumpurarīgas11pamatskola|3612900689|Latviešu|MASKAVAS IELA 197, RĪGA, LV-1019|2010|331|1|56.93302|24.16124|--|--|--|Rīga|--|--|673433|317.0|14.0|0.0|0.0|14|673433|0.0014468241081752277|True|Andreja Pumpura Rīgas 11. pamatskola|0|59.3|-1.0|-1.0|58.5|50.82|-1.0
1659|rīgas51vidusskola|3613900685|Krievu|MASKAVAS IELA 262, RĪGA, LV-1063|2010|529|1|56.90819|24.18119|--|--|--|Rīga|--|--|673433|562.0|-33.0|0.0|0.0|-33|673433|0.003377839546223564|True|Rīgas 51. vidusskola|0|-1.0|-1.0|38.6|57.44|52.75|47.1
1661|rīgasuniversālāvidusskola|3613900680|Krievu|MASKAVAS IELA 273, RĪGA, LV-1063|2010|744|1|56.92075|24.17635|--|--|--|Rīga|--|--|673433|776.0|-32.0|0.0|0.0|-32|673433|0.005346924349565862|True|Rīgas Universālā vidusskola|0|-1.0|-1.0|45.22|67.96|55.7|55.46
1662|jelgavasspīdolasvalstsģimnāzija|2819903270|0|MĀTERA IELA 30, JELGAVA, LV-3001|2010|408|1|56.64742|23.72085|Jelgavas nov.|--|Jaunsvirlaukas pag.|Jelgava|25327|--|60923|432.0|-24.0|0.0|0.0|-24|25327|0.0027548502681703324|True|Jelgavas Spīdolas Valsts ģimnāzija|0|-1.0|-1.0|-1.0|-1.0|-1.0|-1.0
1663|jelgavasvalstsģimnāzija|2819902423|Latviešu|MĀTERA IELA 44, JELGAVA, LV-3001|2010|803|1|56.64428|23.72222|Jelgavas nov.|--|Jaunsvirlaukas pag.|Jelgava|25327|--|60923|826.0|-23.0|0.0|0.0|-23|25327|0.0034258575568711746|True|Jelgavas Valsts ģimnāzija|2|70.19|67.18|53.47|73.12|51.6|67.31
1664|rīgasspeciālāpamatskola-attīstībascentrs|3620900694|Latviešu|MATĪSA IELA 37/39, RĪGA, LV-1009|2010|184|1|56.95583|24.1363|--|--|--|Rīga|--|--|673433|161.0|23.0|0.0|0.0|23|673433|0.0028158480072611354|True|Rīgas speciālā pamatskola - attīstības centrs|0|-1.0|-1.0|-1.0|-1.0|-1.0|-1.0
1665|matkulessākumskola|4311900237|Latviešu|MATKULES PAGASTS, KANDAVAS NOVADS, LV-3132|2010|26|1|56.98331|22.59659|Kandavas nov.|--|Matkules pag.|--|9214|--|--|88.0|-62.0|0.0|0.0|-62|9214|0.06870974093969948|True|Matkules sākumskola|0|-1.0|-1.0|-1.0|-1.0|-1.0|-1.0
1666|jaunmārupespamatskola|4312903031|Latviešu|MAZCENU ALEJA 4A, JAUNMĀRUPE, MĀRUPES NOVADS, LV-2166|2010|204|1|56.87957|23.94897|Mārupes nov.|--|--|--|15321|--|--|172.0|32.0|0.0|0.0|32|15321|0.04048518864967334|True|Jaunmārupes pamatskola|0|-1.0|-1.0|-1.0|-1.0|-1.0|-1.0
1667|mazirbesinternātpamatskola|4122901355|Latviešu|MAZIRBE, KOLKAS PAGASTS, DUNDAGAS NOVADS, LV-3275|2010|55|1|57.68108|22.31777|Dundagas nov.|--|Dundagas pag.|--|4425|--|--|58.0|-3.0|0.0|0.0|-3|4425|0.1765347116008673|True|Mazirbes internātpamatskola|0|-1.0|-1.0|-1.0|-1.0|-1.0|-1.0
1668|straupespamatskola|4412900315|Latviešu|Mazstraupes pils, STRAUPE, STRAUPES PAGASTS, PĀRGAUJAS NOVADS, LV-4152|2010|125|1|57.35433|24.95161|Pārgaujas nov.|--|Straupes pag.|--|4073|--|--|125.0|0.0|0.0|0.0|0|4073|0.08281870380536245|True|Straupes pamatskola|0|-1.0|-1.0|-1.0|-1.0|-1.0|-1.0
1669|liepenespamatskola|4512900276|Latviešu|MEDŅI, VARIEŠU PAGASTS, KRUSTPILS NOVADS, LV-5236|2010|51|1|56.60898|26.04749|Krustpils nov.|--|Variešu pag.|--|6244|--|--|53.0|-2.0|0.0|0.0|-2|6244|0.0785760580584208|True|Liepenes pamatskola|0|69.6|-1.0|-1.0|56.4|21.78|-1.0
1670|jelgavastehnoloģijuvidusskola|2813902959|Latviešu|MEIJU CEĻŠ 9, JELGAVA, LV-3007|2010|559|1|56.65709|23.70844|--|--|--|Jelgava|--|--|60923|678.0|-119.0|0.0|0.0|-119|60923|0.009454104928547737|True|Jelgavas Tehnoloģiju vidusskola|0|-1.0|-1.0|-1.0|-1.0|-1.0|-1.0
1684|mežārespamatskola|4512900278|LK|MEŽĀRE, MEŽĀRES PAGASTS, KRUSTPILS NOVADS, LV-5226|2010|66|1|56.52772|26.20924|Krustpils nov.|--|Mežāres pag.|--|6244|--|--|77.0|-11.0|0.0|0.0|-11|6244|0.11921373494694291|True|Mežāres pamatskola|0|53.18|-1.0|-1.0|46.83|47.67|-1.0
1683|elejasvidusskola|4513900859|Latviešu|MEŽA PROSPEKTS 5, ELEJA, ELEJAS PAGASTS, JELGAVAS NOVADS, LV-3023|2010|348|1|56.40894|23.68767|Jelgavas nov.|--|Elejas pag.|--|25327|--|--|369.0|-21.0|0.0|0.0|-21|25327|0.04780389628471765|True|Elejas vidusskola|0|58.33|51.06|41.08|64.22|41.24|46.35
1682|ogressākumskola|4311900200|Latviešu|MEŽA PROSPEKTS 14/1, OGRE, OGRES NOVADS, LV-5001|2010|503|1|56.82195|24.6066|Ikšķiles nov.|--|Tīnūžu pag.|--|8605|--|--|522.0|-19.0|0.0|0.0|-19|8605|0.005870511051007135|True|Ogres sākumskola|0|-1.0|-1.0|-1.0|-1.0|-1.0|-1.0
1681|ogresvalstsģimnāzija|4319901137|Latviešu|MEŽA PROSPEKTS 14, OGRE, OGRES NOVADS, LV-5001|2010|520|1|56.82195|24.6066|Ikšķiles nov.|--|Tīnūžu pag.|--|8605|--|--|551.0|-31.0|0.0|0.0|-31|8605|0.005870511051007135|True|Ogres Valsts ģimnāzija|0|-1.0|-1.0|-1.0|-1.0|-1.0|-1.0
1680|ogressvmeinardakatoļupamatskola|1712801391|Latviešu|MEŽA PROSPEKTS 1, OGRE, OGRES NOVADS, LV-5001|2010|12|1|56.8181|24.59945|Ikšķiles nov.|--|Tīnūžu pag.|--|8605|--|--|22.0|-10.0|0.0|0.0|-10|8605|0.008120652683127732|False|Ogres Sv. Meinarda katoļu pamatskola|0|68.64|-1.0|-1.0|59.0|42.0|-1.0
1679|"privātāvidusskola""templum"""|3513802325|Krievu|MEŽA IELA 4, RĪGA, LV-1055|2010|30|1|56.94384|24.08099|--|--|--|Rīga|--|--|673433|38.0|-8.0|0.0|0.0|-8|673433|0.003387580257351694|True|"Privātā vidusskola ""Templum"""|0|-1.0|-1.0|12.36|38.0|41.33|47.77
1719|oskarakalpakaliepājas15vidusskola|3013900931|Latviešu|OSKARA KALPAKA IELA 96, LIEPĀJA, LV-3405|2010|858|1|56.54042|21.00452|--|--|--|Liepāja|--|--|78913|873.0|-15.0|0.0|0.0|-15|78913|0.006999321395673531|True|Oskara Kalpaka Liepājas 15. vidusskola|0|-1.0|-1.0|-1.0|-1.0|-1.0|-1.0
1678|mārcienassākumskola|4411903127|Latviešu|MEŽA IELA 23, MĀRCIENA, MĀRCIENAS PAGASTS, MADONAS NOVADS, LV-4852|2010|64|1|56.76532|26.10048|Madonas nov.|--|Mārcienas pag.|--|25888|--|--|71.0|-7.0|0.0|0.0|-7|25888|0.08117742666529938|True|Mārcienas sākumskola|0|-1.0|-1.0|-1.0|-1.0|-1.0|-1.0
1676|mētrienaspamatskola|4412900114|Latviešu|MĒTRIENA, MĒTRIENAS PAGASTS, MADONAS NOVADS, LV-4865|2010|47|1|56.67271|26.31507|Madonas nov.|--|Mētrienas pag.|--|25888|--|--|47.0|0.0|0.0|0.0|0|25888|0.1220249749026806|True|Mētrienas pamatskola|0|66.25|-1.0|-1.0|44.8|50.17|-1.0
1675|mērdzenespamatskola|4212900452|Latviešu|MĒRDZENE, MĒRDZENES PAGASTS, KĀRSAVAS NOVADS, LV-5726|2010|84|1|56.68559|27.7479|Kārsavas nov.|--|Mērdzenes pag.|--|6512|--|--|92.0|-8.0|0.0|0.0|-8|6512|0.049376185555386296|True|Mērdzenes pamatskola|0|-1.0|-1.0|-1.0|-1.0|-1.0|-1.0
1674|meņģelespamatskola|4312901086|Latviešu|MEŅĢELE, MEŅĢELES PAGASTS, OGRES NOVADS, LV-5047|2010|40|1|56.83808|25.33864|Ogres nov.|--|Meņģeles pag.|--|36984|--|--|51.0|-11.0|0.0|0.0|-11|36984|0.04859786929486033|False|Meņģeles pamatskola|0|75.34|-1.0|-1.0|73.88|-1.0|-1.0
1673|rīgasfrančulicejs|3713900740|Latviešu|MĒNESS IELA 8, RĪGA, LV-1013|2010|708|1|56.96694|24.13745|--|--|--|Rīga|--|--|673433|700.0|8.0|0.0|0.0|8|673433|0.002422610575391016|True|Rīgas Franču licejs|2|75.21|75.1|58.53|-1.0|65.66|80.76
1672|vispārējāsvidējāsizglītībasizlīdzinošāprogrammapiedaugavpils1arodvidusskolas|2731001060|Krievu|Mendeļejeva 1, DAUGAVPILS, LV-5410|2010|29|1|55.89414|26.5536|--|--|--|Daugavpils|--|--|95962|35.0|-6.0|0.0|0.0|-6|95962|0.004797707786016507|False|Vispārējās vidējās izglītības izlīdzinošā programma pie Daugavpils 1. arodvidusskolas|0|-1.0|-1.0|-1.0|-1.0|-1.0|-1.0
1671|rīgas53vidusskola|3813900725|Krievu|MELNSILA IELA 6, RĪGA, LV-1046|2010|401|1|56.94153|24.06954|--|--|--|Rīga|--|--|673433|388.0|13.0|0.0|0.0|13|673433|0.003481738071710423|True|Rīgas 53. vidusskola|0|-1.0|-1.0|38.19|52.2|57.2|49.28
1677|valmieraspārgaujaspamatskola|2512902432|Latviešu|MEŽA IELA 12, VALMIERA, LV-4201|2010|501|1|57.52726|25.42941|--|--|--|Valmiera|--|--|25888|504.0|-3.0|0.0|0.0|-3|25888|0.003833171011056647|True|Valmieras Pārgaujas pamatskola|0|-1.0|-1.0|-1.0|-1.0|-1.0|-1.0
1925|olaines2vidusskola|4313901129|Krievu|SKOLAS IELA 1, OLAINE, OLAINES NOVADS, LV-2114|2010|618|1|56.78235|23.9348|Olaines nov.|Olaine|--|--|20136|12279|--|628.0|-10.0|0.0|0.0|-10|20136|0.00898818112857255|True|Olaines 2. vidusskola|0|-1.0|-1.0|48.03|53.98|40.21|54.58
1720|ozolainespamatskola|412901312|Latviešu|OZOLAINE, VECSAULES PAGASTS, BAUSKAS NOVADS, LV-3936|2010|80|1|56.43232|24.46519|Bauskas nov.|--|Dāviņu pag.|--|26397|--|--|96.0|-16.0|0.0|0.0|-16|26397|0.10980011657552952|True|Ozolaines pamatskola|0|69.16|-1.0|-1.0|62.56|49.05|-1.0
1758|mālupespamatskola|4412900907|Latviešu|Pīlādži, MĀLUPE, MĀLUPES PAGASTS, ALŪKSNES NOVADS, LV-4358|2010|62|1|57.33906|27.23323|Alūksnes nov.|--|Mālupes pag.|--|17712|--|--|73.0|-11.0|0.0|0.0|-11|17712|0.06806607451586608|True|Mālupes pamatskola|0|66.2|-1.0|-1.0|44.0|37.33|-1.0
1759|babītesnovadapašvaldībassalassākumskola|4311902824|Latviešu|Pīlādzīši, SPUŅCIEMS, SALAS PAGASTS, BABĪTES NOVADS, LV-2105|2010|26|1|56.92746|23.68865|Babītes nov.|--|Salas pag.|--|9219|--|--|0.0|0.0|0.0|0.0|26|9219|0.04075953998758684|True|Babītes novada pašvaldības Salas sākumskola|0|-1.0|-1.0|-1.0|-1.0|-1.0|-1.0
1760|pildaspamatskola|4212900453|Latviešu|PILDA, PILDAS PAGASTS, LUDZAS NOVADS, LV-5733|2010|69|1|56.40711|27.74536|Ludzas nov.|--|Ņukšu pag.|--|14751|--|--|73.0|-4.0|0.0|0.0|-4|14751|0.051523793532694644|True|Pildas pamatskola|0|61.17|-1.0|-1.0|-1.0|46.48|-1.0
1761|viļakasvalstsģimnāzija|4219900075|Latviešu|PILS IELA 11, VIĻAKA, VIĻAKAS NOVADS, LV-4583|2010|130|1|57.18291|27.68683|Viļakas nov.|Viļaka|--|--|5921|1521|--|141.0|-11.0|0.0|0.0|-11|5921|0.06359383382058284|True|Viļakas Valsts ģimnāzija|0|67.86|57.77|58.08|78.83|52.55|60.75
1762|viļakaspamatskola|4212900074|LK|PILS IELA 11a, VIĻAKA, VIĻAKAS NOVADS, LV-4583|2010|113|1|57.18291|27.68683|Viļakas nov.|Viļaka|--|--|5921|1521|--|126.0|-13.0|0.0|0.0|-13|5921|0.06359383382058284|True|Viļakas pamatskola|0|-1.0|-1.0|-1.0|64.8|59.47|-1.0
1763|mālpilsinternātpamatskola|4312901113|Latviešu|PILS IELA 14, MĀLPILS, MĀLPILS NOVADS, LV-2152|2010|120|1|57.00452|24.94964|Mālpils nov.|--|--|--|3751|--|--|120.0|0.0|0.0|0.0|0|3751|0.007924291766463627|True|Mālpils internātpamatskola|0|50.57|-1.0|-1.0|67.5|25.82|-1.0
1764|krāslavaspamatskola|1112900553|Latviešu|PILS IELA 5, KRĀSLAVA, KRĀSLAVAS NOVADS, LV-5601|2010|380|1|55.90144|27.16069|Krāslavas nov.|Krāslava|--|--|18159|9395|--|402.0|-22.0|0.0|0.0|-22|18159|0.009483722897681285|True|Krāslavas pamatskola|0|69.01|-1.0|-1.0|64.3|48.27|-1.0
1765|lizumavidusskola|4413900963|Latviešu|Pils, LIZUMS, LIZUMA PAGASTS, GULBENES NOVADS, LV-4425|2010|180|1|57.19245|26.37192|Gulbenes nov.|--|Lizuma pag.|--|23574|--|--|202.0|-22.0|0.0|0.0|-22|23574|0.07742348803819261|True|Lizuma vidusskola|0|62.94|56.29|37.75|60.39|39.87|53.32
1766|zemītespamatskola|4312900210|Latviešu|Pils, ZEMĪTE, ZEMĪTES PAGASTS, KANDAVAS NOVADS, LV-3135|2010|111|1|56.92675|22.79263|Kandavas nov.|--|Zemītes pag.|--|9214|--|--|105.0|6.0|0.0|0.0|6|9214|0.1087284700526937|True|Zemītes pamatskola|0|60.08|-1.0|-1.0|56.5|39.76|-1.0
1767|praulienaspamatskola|4412900111|Latviešu|Pilsdārzi, PRAULIENA, PRAULIENAS PAGASTS, MADONAS NOVADS, LV-4825|2010|104|1|56.82428|26.30435|Madonas nov.|--|Ļaudonas pag.|--|25888|--|--|108.0|-4.0|0.0|0.0|-4|25888|0.06956608369025587|True|Praulienas pamatskola|0|67.93|-1.0|-1.0|64.88|52.55|-1.0
1768|kvaldemārasākumskola|4411903167|Latviešu|PILSKALNS, BEĻAVAS PAGASTS, GULBENES NOVADS, LV-4409|2010|69|1|57.28826|26.78892|Gulbenes nov.|--|Beļavas pag.|--|23574|--|--|81.0|-12.0|0.0|0.0|-12|23574|0.11410381939269078|True|K. Valdemāra sākumskola|0|-1.0|-1.0|-1.0|-1.0|-1.0|-1.0
1769|kuldīgasalternatīvāsākumskola|4111901199|Latviešu|PILTENES IELA 25, KULDĪGA, KULDĪGAS NOVADS, LV-3301|2010|258|1|56.97442|21.95843|Kuldīgas nov.|Kuldīga|--|--|25518|12067|--|265.0|-7.0|0.0|0.0|-7|25518|0.007484129875942124|True|Kuldīgas Alternatīvā sākumskola|0|-1.0|-1.0|-1.0|-1.0|-1.0|-1.0
1770|vplūdoņakuldīgasģimnāzija|4116901197|Latviešu|PILTENES IELA 25, KULDĪGA, KULDĪGAS NOVADS, LV-3301|2010|298|1|56.97442|21.95843|Kuldīgas nov.|Kuldīga|--|--|25518|12067|--|341.0|-43.0|0.0|0.0|-43|25518|0.007484129875942124|True|V. Plūdoņa Kuldīgas ģimnāzija|0|64.93|57.7|41.25|56.59|44.81|52.22
1771|vplūdoņakuldīgasvidusskola|4113903238|0|PILTENES IELA 25, KULDĪGA, KULDĪGAS NOVADS, LV-3301|2010|298|1|56.97442|21.95843|Kuldīgas nov.|Kuldīga|--|--|25518|12067|--|341.0|-43.0|0.0|0.0|-43|25518|0.007484129875942124|True|V. Plūdoņa Kuldīgas vidusskola|0|-1.0|-1.0|-1.0|-1.0|-1.0|-1.0
1757|kuldīgasmākslasunhumanitārozinībuvidusskola|4113901189|Latviešu|PĒTERA IELA 5, KULDĪGA, KULDĪGAS NOVADS, LV-3301|2010|250|1|56.97091|21.96504|Kuldīgas nov.|Kuldīga|--|--|25518|12067|--|253.0|-3.0|0.0|0.0|-3|25518|0.0020002499843744226|True|Kuldīgas Mākslas un humanitāro zinību vidusskola|0|64.75|55.57|34.05|65.28|44.15|58.76
1772|privātāvidusskolaādažubrīvāvaldorfaskola|4313800383|Latviešu|PIRMĀ IELA 26a, ĀDAŽI, ĀDAŽU NOVADS, LV-2164|2010|197|1|57.0733|24.32441|Ādažu nov.|--|--|--|9855|--|--|175.0|22.0|0.0|0.0|22|9855|0.01605605804673007|True|Privātā vidusskola Ādažu Brīvā Valdorfa skola|0|-1.0|-1.0|-1.0|-1.0|-1.0|-1.0
1774|pļavniekkalnasākumskola|4311901108|Latviešu|PĻAVNIEKKALNA IELA 20, KATLAKALNS, ĶEKAVAS PAGASTS, ĶEKAVAS NOVADS, LV-2111|2010|117|1|56.87054|24.18567|Ķekavas nov.|--|Ķekavas pag.|--|21500|--|--|100.0|17.0|0.0|0.0|17|21500|0.03712961217142049|True|Pļavniekkalna sākumskola|0|-1.0|-1.0|-1.0|-1.0|-1.0|-1.0
1775|"sākumskola""ābelīte"""|2911901386|Krievu|PLŪDU IELA 4a, JŪRMALA, LV-2015|2010|98|1|56.96191|23.81407|--|--|--|Jūrmala|--|--|51749|92.0|6.0|0.0|0.0|6|51749|0.012428821343954986|True|"Sākumskola ""Ābelīte"""|0|-1.0|-1.0|-1.0|-1.0|-1.0|-1.0
1776|fričabārdaspociemapamatskola|4312900172|Latviešu|POCIEMS, KATVARU PAGASTS, LIMBAŽU NOVADS, LV-4061|2010|31|1|57.59898|24.85455|Limbažu nov.|--|Katvaru pag.|--|18369|--|--|61.0|-30.0|0.0|0.0|-30|18369|0.06593087668156435|False|Friča Bārdas Pociema pamatskola|0|58.48|-1.0|-1.0|50.83|34.44|-1.0
1777|biržuinternātpamatskola|4512900265|Latviešu|PODVĀZES IELA 1, BIRŽI, SALAS PAGASTS, SALAS NOVADS, LV-5214|2010|163|1|56.41098|25.77446|Salas nov.|--|Salas pag.|--|3935|--|--|166.0|-3.0|0.0|0.0|-3|3935|0.0121370713106578|True|Biržu internātpamatskola|0|57.16|-1.0|-1.0|57.0|43.58|-1.0
1778|popespamatskola|4112900049|Latviešu|POPE, POPES PAGASTS, VENTSPILS NOVADS, LV-3614|2010|96|1|57.40193|21.85578|Ventspils nov.|--|Popes pag.|--|12525|--|--|99.0|-3.0|0.0|0.0|-3|12525|0.18396308461210403|True|Popes pamatskola|0|79.77|-1.0|-1.0|71.71|61.5|-1.0
1779|vānespamatskola|4312900251|Latviešu|Prātnieki, VĀNE, VĀNES PAGASTS, KANDAVAS NOVADS, LV-3131|2010|102|1|56.9235|22.56277|Kandavas nov.|--|Vānes pag.|--|9214|--|--|96.0|6.0|0.0|0.0|6|9214|0.06870974093969948|True|Vānes pamatskola|0|67.27|-1.0|-1.0|53.9|51.67|-1.0
1780|priežmalaspamatskola|4212902579|Latviešu|PRIEŽMALE, KASTUĻINAS PAGASTS, AGLONAS NOVADS, LV-5685|2010|58|1|56.15113|27.21238|Aglonas nov.|--|Kastuļinas pag.|--|4132|--|--|53.0|5.0|0.0|0.0|5|4132|0.10888632788371636|True|Priežmalas pamatskola|0|49.39|-1.0|-1.0|-1.0|44.44|-1.0
1781|gardenespamatskola|4512900874|Latviešu|PRIEŽU IELA 21, GARDENE, AURU PAGASTS, DOBELES NOVADS, LV-3701|2010|153|1|56.64946|23.22404|Dobeles nov.|Dobele|--|--|22874|10630|--|152.0|1.0|0.0|0.0|1|22874|0.05826027205566479|True|Gardenes pamatskola|0|55.33|-1.0|-1.0|62.0|23.47|-1.0
1782|"privātāsākumskola""vinnijs"""|4311802759|Latviešu|PRIEŽU IELA 3, BABĪTE, BABĪTES PAGASTS, BABĪTES NOVADS, LV-2101|2010|7|1|56.95322|23.94921|Babītes nov.|--|Babītes pag.|--|9219|--|--|0.0|0.0|0.0|0.0|7|9219|0.033780189460693236|True|"Privātā sākumskola ""Vinnijs"""|0|-1.0|-1.0|-1.0|-1.0|-1.0|-1.0
1783|"privātāvidusskola""laisma"""|3613801461|LK|PRŪŠU IELA 13a, RĪGA, LV-1057|2010|41|1|56.91424|24.18874|Stopiņu nov.|--|--|Rīga|9924|--|673433|57.0|-16.0|0.0|0.0|-16|9924|0.0032920662204748187|True|"Privātā vidusskola ""Laisma"""|0|56.82|49.39|35.0|75.25|64.0|73.7
1784|rīgas65vidusskola|3613900664|Krievu|PRŪŠU IELA 32, RĪGA, LV-1057|2010|478|1|56.91203|24.19118|Stopiņu nov.|--|--|Rīga|9924|--|673433|462.0|16.0|0.0|0.0|16|9924|0.002486201922611412|True|Rīgas 65. vidusskola|0|-1.0|-1.0|53.75|62.32|54.04|57.84
1785|rīgaslietuviešuvidusskola|3613901263|Latviešu|PRŪŠU IELA 42a, RĪGA, LV-1057|2010|337|1|56.9095|24.19386|Stopiņu nov.|--|--|Rīga|9924|--|673433|309.0|28.0|0.0|0.0|28|9924|0.003040805814256019|True|Rīgas Lietuviešu vidusskola|0|66.92|46.82|34.47|70.31|56.82|57.31
1786|draudzīgāaicinājumacēsuvalstsģimnāzija|4419900342|Latviešu|PŪCES IELA 2, CĒSIS, CĒSU NOVADS, LV-4101|2010|355|1|57.30601|25.27385|Amatas nov.|--|Amatas pag.|--|5882|--|--|385.0|-30.0|0.0|0.0|-30|5882|0.0049381170500524645|True|Draudzīgā Aicinājuma Cēsu Valsts ģimnāzija|8|79.63|72.59|57.08|78.24|68.36|73.59
1787|mārkalnespamatskola|4412900903|Latviešu|Pūcīte, MĀRKALNE, MĀRKALNES PAGASTS, ALŪKSNES NOVADS, LV-4351|2010|69|1|57.49113|27.19014|Alūksnes nov.|--|Mārkalnes pag.|--|17712|--|--|66.0|3.0|0.0|0.0|3|17712|0.0917213851836077|True|Mārkalnes pamatskola|0|56.18|-1.0|-1.0|59.0|48.8|-1.0
1773|ventspils1pamatskola|3212900030|Latviešu|Pļavas iela 25/27, VENTSPILS, LV-3601|2010|312|1|57.38268|21.56502|Ventspils nov.|--|Ances pag.|Ventspils|12525|--|39881|326.0|-14.0|0.0|0.0|-14|12525|0.005289357238835968|True|Ventspils 1. pamatskola|0|71.76|-1.0|-1.0|64.72|37.33|-1.0
1756|salacgrīvasvidusskola|4313900159|Latviešu|PĒRNAVAS IELA 31, SALACGRĪVA, SALACGRĪVAS NOVADS, LV-4033|2010|549|1|57.76662|24.35415|Salacgrīvas nov.|Salacgrīva|--|--|8668|3060|--|590.0|-41.0|0.0|0.0|-41|8668|0.09741066522716754|True|Salacgrīvas vidusskola|0|-1.0|54.32|27.88|63.28|44.84|55.06
1755|penkulespamatskola|4512900878|Latviešu|PENKULE, PENKULES PAGASTS, DOBELES NOVADS, LV-3725|2010|92|1|56.4854|23.18121|Dobeles nov.|--|Penkules pag.|--|22874|--|--|97.0|-5.0|0.0|0.0|-5|22874|0.052047294838443475|True|Penkules pamatskola|0|63.27|-1.0|-1.0|-1.0|30.13|-1.0
1754|liepājaskatoļupamatskola|3012800408|Latviešu|PELDU IELA 17, LIEPĀJA, LV-3401|2010|129|1|56.50553|21.00622|--|--|--|Liepāja|--|--|78913|128.0|1.0|0.0|0.0|1|78913|0.002630019011337324|True|Liepājas Katoļu pamatskola|0|69.36|-1.0|-1.0|72.9|-1.0|-1.0
1723|ozolkalnapamatskola|4412900957|Latviešu|OZOLKALNS, BEĻAVAS PAGASTS, GULBENES NOVADS, LV-4410|2010|72|1|57.19445|26.69478|Gulbenes nov.|--|Beļavas pag.|--|23574|--|--|83.0|-11.0|0.0|0.0|-11|23574|0.06322727971374326|True|Ozolkalna pamatskola|0|65.23|-1.0|-1.0|46.43|46.83|-1.0
1724|ozolmuižaspamatskola|4312900170|Latviešu|Ozolmuižas pils, OZOLMUIŽA, BRĪVZEMNIEKU PAGASTS, ALOJAS NOVADS, LV-4063|2010|59|1|57.63742|25.04699|Alojas nov.|--|Brīvzemnieku pag.|--|5569|--|--|60.0|-1.0|0.0|0.0|-1|5569|0.1006047757315701|True|Ozolmuižas pamatskola|0|53.64|-1.0|-1.0|52.0|34.0|-1.0
1726|grobiņaspagastasākumskola|4111901002|Latviešu|OZOLU IELA 1, DUBEŅI, GROBIŅAS PAGASTS, GROBIŅAS NOVADS, LV-3438|2010|37|1|56.47564|21.20064|Grobiņas nov.|--|Grobiņas pag.|--|9556|--|--|39.0|-2.0|0.0|0.0|-2|9556|0.06854010504806737|True|Grobiņas pagasta sākumskola|0|-1.0|-1.0|-1.0|-1.0|-1.0|-1.0
1727|jumpravaspamatskola|4312903236|0|OZOLU IELA 14, JUMPRAVA, JUMPRAVAS PAGASTS, LIELVĀRDES NOVADS, LV-5022|2010|189|1|56.6728002|24.9742926|Lielvārdes nov.|--|Jumpravas pag.|--|10548|--|--|188.0|1.0|0.0|0.0|1|10548|0.002448130470380658|True|Jumpravas pamatskola|0|-1.0|-1.0|-1.0|-1.0|-1.0|-1.0
1728|ludzas2vidusskola|4213900475|LK|P. MIGLINĪKA IELA 34a, LUDZA, LUDZAS NOVADS, LV-5701|2010|408|1|56.53855|27.71777|Ludzas nov.|Ludza|--|--|14751|9215|--|409.0|-1.0|0.0|0.0|-1|14751|0.0028208154849284923|True|Ludzas 2. vidusskola|0|-1.0|51.43|47.0|56.83|59.57|56.74
1729|pālespamatskola|4312900171|Latviešu|PĀLE, PĀLES PAGASTS, LIMBAŽU NOVADS, LV-4052|2010|76|1|57.69933|24.66872|Limbažu nov.|--|Katvaru pag.|--|18369|--|--|82.0|-6.0|0.0|0.0|-6|18369|0.10321565046058069|True|Pāles pamatskola|0|57.17|-1.0|-1.0|47.0|32.15|-1.0
1732|palsmanesinternātpamatskola|4422900893|Latviešu|PALSMANE, PALSMANES PAGASTS, SMILTENES NOVADS, LV-4724|2010|97|1|57.39099|26.18272|Smiltenes nov.|--|Palsmanes pag.|--|13417|--|--|103.0|-6.0|0.0|0.0|-6|13417|0.0036565694304905865|True|Palsmanes internātpamatskola|0|-1.0|-1.0|-1.0|-1.0|-1.0|-1.0
1733|palsmanespamatskola|2412901218|Latviešu|PALSMANE, PALSMANES PAGASTS, SMILTENES NOVADS, LV-4724|2010|95|1|57.39099|26.18272|Smiltenes nov.|--|Palsmanes pag.|--|13417|--|--|107.0|-12.0|0.0|0.0|-12|13417|0.0036565694304905865|True|Palsmanes pamatskola|0|67.22|-1.0|-1.0|64.83|57.48|-1.0
1734|saldusnovadapašvaldībaspampāļupamatskola|4112900409|Latviešu|PAMPĀĻI, PAMPĀĻU PAGASTS, SALDUS NOVADS, LV-3882|2010|78|1|56.53759|22.21325|Saldus nov.|--|Kursīšu pag.|--|26579|--|--|84.0|-6.0|0.0|0.0|-6|26579|0.015196539079669474|True|Saldus novada pašvaldības Pampāļu pamatskola|0|60.0|-1.0|-1.0|51.86|40.76|-1.0
1735|pamūšasspeciālāinternātpamatskola|420901298|Latviešu|PAMŪŠA, GAILĪŠU PAGASTS, BAUSKAS NOVADS, LV-3931|2010|73|1|56.38472|24.23918|Bauskas nov.|--|Gailīšu pag.|--|26397|--|--|93.0|-20.0|0.0|0.0|-20|26397|0.031897311798960944|True|Pamūšas speciālā internātpamatskola|0|-1.0|-1.0|-1.0|-1.0|-1.0|-1.0
1736|rīgasdaugavgrīvasvidusskola|3513900766|Krievu|PARĀDES IELA 5, RĪGA, LV-1016|2010|512|1|57.03865|24.0254|--|--|--|Rīga|--|--|673433|535.0|-23.0|0.0|0.0|-23|673433|0.020838665984172017|True|Rīgas Daugavgrīvas vidusskola|0|-1.0|-1.0|62.02|57.09|48.83|66.24
1738|drabešujaunāpamatskola|4412903194|Latviešu|PARKA IELA 1, LĪVI, DRABEŠU PAGASTS, AMATAS NOVADS, LV-4101|2010|51|1|57.27938|25.24631|Amatas nov.|--|Amatas pag.|--|5882|--|--|52.0|-1.0|0.0|0.0|-1|5882|0.029763252510432398|True|Drabešu Jaunā pamatskola|0|-1.0|-1.0|-1.0|-1.0|-1.0|-1.0
1739|krišjāņavaldemāraainažupamatskola|4312900160|Latviešu|PARKA IELA 12, AINAŽI, SALACGRĪVAS NOVADS, LV-4035|2010|135|1|57.86403|24.35451|Salacgrīvas nov.|Ainaži|--|--|8668|904|--|144.0|-9.0|0.0|0.0|-9|8668|0.09741066522716754|True|Krišjāņa Valdemāra Ainažu pamatskola|0|72.67|-1.0|-1.0|70.07|56.53|-1.0
1753|ziemeļvalstuģimnāzija|3813900700|Latviešu|PAULA LEJIŅA IELA 12, RĪGA, LV-1029|2010|864|1|56.94628|24.02001|--|--|--|Rīga|--|--|673433|930.0|-66.0|0.0|0.0|-66|673433|0.006993461231748936|True|Ziemeļvalstu ģimnāzija|0|-1.0|72.69|44.48|-1.0|-1.0|75.39
1752|pastendespamatskola|2212900595|Latviešu|PASTENDE, ĢIBUĻU PAGASTS, TALSU NOVADS, LV-3251|2010|169|1|57.22575|22.52315|Talsu nov.|--|Ģibuļu pag.|--|32262|--|--|201.0|-32.0|0.0|0.0|-32|32262|0.046400475213081334|True|Pastendes pamatskola|0|76.36|-1.0|-1.0|65.85|45.23|-1.0
1750|dāvjaozoliņaapesvidusskola|4413900899|Latviešu|PASTA IELA 26, APE, APES NOVADS, LV-4337|2010|171|1|57.54065|26.70516|Apes nov.|Ape|--|--|3984|1018|--|182.0|-11.0|0.0|0.0|-11|3984|0.14525857943680867|True|Dāvja Ozoliņa Apes vidusskola|0|70.59|46.76|25.38|58.14|45.41|35.75
1748|tilžasinternātpamatskola|4212900432|Latviešu|PĀRUPES IELA 4, TILŽA, TILŽAS PAGASTS, BALVU NOVADS, LV-4572|2010|145|1|56.89849|27.36334|Balvu nov.|--|Tilžas pag.|--|14643|--|--|152.0|-7.0|0.0|0.0|-7|14643|0.0029964145240549923|True|Tilžas internātpamatskola|0|57.85|-1.0|-1.0|53.4|20.0|-1.0
1721|rīgas94vidusskola|3813900723|Latviešu|OZOLCIEMA IELA 26, RĪGA, LV-1058|2010|488|1|56.89895|24.09394|Mārupes nov.|--|--|Rīga|15321|--|673433|527.0|-39.0|0.0|0.0|-39|15321|0.012035487491995544|True|Rīgas 94. vidusskola|0|65.08|53.99|42.51|68.49|50.39|56.32
1745|žīgurupamatskola|4212900431|Latviešu|PARKA IELA 9, ŽĪGURI, ŽĪGURU PAGASTS, VIĻAKAS NOVADS, LV-4584|2010|71|1|57.26734|27.66442|Viļakas nov.|--|Susāju pag.|--|5921|--|--|75.0|-4.0|0.0|0.0|-4|5921|0.07614359198251588|True|Žīguru pamatskola|0|59.6|-1.0|-1.0|62.0|33.5|-1.0
1744|tiskāduvidusskola|4213901149|Krievu|PARKA IELA 4, VECRUŽINA, SILMALAS PAGASTS, RĒZEKNES NOVADS, LV-4636|2010|258|1|56.44038|27.08586|Rēzeknes nov.|--|Silmalas pag.|--|28877|--|--|266.0|-8.0|0.0|0.0|-8|28877|0.002915475947425531|True|Tiskādu vidusskola|0|-1.0|-1.0|38.33|41.04|50.94|37.5
1743|tiskādusanatorijasinternātpamatskola|4223901170|Krievu|PARKA IELA 4, VECRUŽINA, SILMALAS PAGASTS, RĒZEKNES NOVADS, LV-4636|2010|102|1|56.44038|27.08586|Rēzeknes nov.|--|Silmalas pag.|--|28877|--|--|151.0|-49.0|0.0|0.0|-49|28877|0.002915475947425531|False|Tiskādu sanatorijas internātpamatskola|0|-1.0|-1.0|-1.0|-1.0|-1.0|-1.0
1742|limbažu3vidusskola|4313901881|Latviešu|PARKA IELA 38, LIMBAŽI, LIMBAŽU NOVADS, LV-4001|2010|541|1|57.5063|24.71017|Limbažu nov.|Limbaži|--|--|18369|8061|--|629.0|-88.0|0.0|0.0|-88|18369|0.0026878243990226033|True|Limbažu 3. vidusskola|0|68.29|59.43|46.86|68.9|56.17|59.85
1741|mazsalacasvidusskola|4413901013|Latviešu|PARKA IELA 31, MAZSALACA, MAZSALACAS NOVADS, LV-4215|2010|348|1|57.8615132|25.0364973|Mazsalacas nov.|Mazsalaca|--|--|3613|1340|--|387.0|-39.0|0.0|0.0|-39|3613|0.09247334091255904|True|Mazsalacas vidusskola|0|64.6|65.7|44.89|66.19|39.19|58.96
1740|ilmāragaišakoknesesvidusskola|4513901334|Latviešu|PARKA IELA 27, KOKNESE, KOKNESES PAGASTS, KOKNESES NOVADS, LV-5113|2010|487|1|56.64453|25.42455|Kokneses nov.|--|Kokneses pag.|--|5625|--|--|488.0|-1.0|0.0|0.0|-1|5625|0.06701775063369429|True|Ilmāra Gaiša Kokneses vidusskola|0|67.25|63.24|49.69|64.36|41.82|63.16
1746|rīgas61vidusskola|3813900726|Krievu|PĀRSLAS IELA 14, RĪGA, LV-1002|2010|418|1|56.93423|24.06129|--|--|--|Rīga|--|--|673433|430.0|-12.0|0.0|0.0|-12|673433|0.005332410336797544|True|Rīgas 61. vidusskola|2|-1.0|-1.0|38.2|-1.0|36.77|45.08
1927|rekavasvidusskola|4213900437|Latviešu|SKOLAS IELA 1, REKOVA, ŠĶILBĒNU PAGASTS, VIĻAKAS NOVADS, LV-4587|2010|156|1|57.04149|27.61845|Balvu nov.|--|Briežuciema pag.|--|14643|--|--|176.0|-20.0|0.0|0.0|-20|14643|0.05721763539329625|True|Rekavas vidusskola|0|72.25|46.25|60.94|64.38|69.33|50.51
1928|skaistaspamatskola|1112900560|Latviešu|SKOLAS IELA 1, SKAISTA, SKAISTAS PAGASTS, KRĀSLAVAS NOVADS, LV-5671|2010|31|1|55.96483|27.36952|Krāslavas nov.|--|Skaistas pag.|--|18159|--|--|41.0|-10.0|0.0|0.0|-10|18159|0.0012316655390138794|True|Skaistas pamatskola|0|57.6|-1.0|-1.0|85.5|46.18|-1.0
1929|šķeltovaspamatskola|4212900558|Latviešu|SKOLAS IELA 1, ŠĶELTOVA, ŠĶELTOVAS PAGASTS, AGLONAS NOVADS, LV-5653|2010|52|1|56.02555|27.01114|Aglonas nov.|--|Šķeltovas pag.|--|4132|--|--|58.0|-6.0|0.0|0.0|-6|4132|0.0695293700532408|True|Šķeltovas pamatskola|0|64.09|-1.0|-1.0|-1.0|48.0|-1.0
2103|jelgavascentrapamatskola|2812903293|0|UZVARAS IELA 10, JELGAVA, LV-3001|2010|760|1|56.65507|23.72405|Jelgavas nov.|--|Jaunsvirlaukas pag.|Jelgava|25327|--|60923|802.0|-42.0|0.0|0.0|-42|25327|0.004009301684833978|True|Jelgavas Centra pamatskola|0|-1.0|-1.0|-1.0|-1.0|-1.0|-1.0
2104|vabolesvidusskola|4213901322|Latviešu|VABOLE, VABOLES PAGASTS, DAUGAVPILS NOVADS, LV-5477|2010|164|1|56.02903|26.46276|Daugavpils nov.|--|Vaboles pag.|--|26007|--|--|174.0|-10.0|0.0|0.0|-10|26007|0.10905633865117498|True|Vaboles vidusskola|0|73.18|52.64|54.42|65.24|50.85|41.05
2105|rīgas60vidusskola|3713900743|Krievu|VAIDAVAS IELA 6, RĪGA, LV-1084|2010|661|1|56.96311|24.17568|--|--|--|Rīga|--|--|673433|686.0|-25.0|0.0|0.0|-25|673433|0.004011545836706858|True|Rīgas 60. vidusskola|0|-1.0|-1.0|48.98|65.87|61.13|63.64
2106|māterujurakazdangaspamatskola|4112901019|Latviešu|VALĀTA, KAZDANGAS PAGASTS, AIZPUTES NOVADS, LV-3457|2010|177|1|56.72108|21.72723|Aizputes nov.|--|Kazdangas pag.|--|9675|--|--|190.0|-13.0|0.0|0.0|-13|9675|0.11708157839728972|True|Māteru Jura Kazdangas pamatskola|0|68.66|-1.0|-1.0|66.42|54.98|-1.0
2107|madonasvalstsģimnāzija|4419902408|Latviešu|VALDEMĀRA BULVĀRIS 2a, MADONA, MADONAS NOVADS, LV-4801|2010|315|1|56.85455|26.21973|Madonas nov.|Madona|--|--|25888|8242|--|351.0|-36.0|0.0|0.0|-36|25888|0.0010977249200030963|True|Madonas Valsts ģimnāzija|2|79.22|62.55|52.68|79.19|74.71|65.61
2108|madonaspilsētasvidusskola|4413903190|Latviešu|VALDEMĀRA BULVĀRIS 6, MADONA, MADONAS NOVADS, LV-4801|2010|845|1|56.8551|26.21878|Madonas nov.|Madona|--|--|25888|8242|--|892.0|-47.0|0.0|0.0|-47|25888|0.0010977249200030963|True|Madonas pilsētas vidusskola|0|-1.0|-1.0|-1.0|-1.0|-1.0|-1.0
2110|liepājaspilsētas12vidusskola|3013900930|Krievu|VALDEMĀRA IELA 35/37, LIEPĀJA, LV-3401|2010|532|1|56.50283|21.00661|--|--|--|Liepāja|--|--|78913|543.0|-11.0|0.0|0.0|-11|78913|0.002728021260911427|True|Liepājas pilsētas 12. vidusskola|4|-1.0|-1.0|44.65|63.09|58.06|49.4
2111|kalnciemavidusskola|4513900858|Latviešu|VALGUNDES PAGASTS, JELGAVAS NOVADS, LV-3017|2010|187|1|56.74973|23.67888|Jelgavas nov.|--|Kalnciema pag.|--|25327|--|--|205.0|-18.0|0.0|0.0|-18|25327|0.0847524925887121|True|Kalnciema vidusskola|0|64.43|50.15|35.31|56.0|48.56|47.68
2112|daugavpils15vidusskola|2713901176|Krievu|VALKAS IELA 4, DAUGAVPILS, LV-5417|2010|812|1|55.88251|26.55707|--|--|--|Daugavpils|--|--|95962|809.0|3.0|0.0|0.0|3|95962|0.0023793276361180242|True|Daugavpils 15. vidusskola|0|-1.0|-1.0|48.59|54.87|55.24|50.71
2113|daugavpils13vidusskola|2713901135|Krievu|VALKAS IELA 4a, DAUGAVPILS, LV-5417|2010|636|1|55.88355|26.55493|--|--|--|Daugavpils|--|--|95962|626.0|10.0|0.0|0.0|10|95962|0.0023793276361180242|True|Daugavpils 13. vidusskola|0|-1.0|-1.0|65.7|58.33|54.11|47.72
2114|vecumniekunovadadomesvallesvidusskola|4513901041|Latviešu|VALLE, VALLES PAGASTS, VECUMNIEKU NOVADS, LV-5106|2010|137|1|56.51507|24.72032|Vecumnieku nov.|--|Bārbeles pag.|--|9049|--|--|134.0|3.0|0.0|0.0|3|9049|0.11523912573427686|True|Vecumnieku novada Domes Valles vidusskola|0|72.45|49.06|21.09|70.17|48.72|56.84
2115|rubenespamatskola|4412900637|Latviešu|VALMIERAS IELA 1, RUBENE, KOCĒNU PAGASTS, VALMIERAS NOVADS, LV-4227|2010|108|1|57.4679|25.25644|Kocēnu nov.|--|Kocēnu pag.|--|6493|--|--|135.0|-27.0|0.0|0.0|-27|6493|0.04710192883523903|True|Rubenes pamatskola|0|66.46|-1.0|-1.0|75.93|54.44|-1.0
2116|cēsu2vidusskola|4413900338|LK|VALMIERAS IELA 19, CĒSIS, CĒSU NOVADS, LV-4101|2010|195|1|57.31812|25.28285|Amatas nov.|--|Amatas pag.|--|5882|--|--|267.0|-72.0|0.0|0.0|-72|5882|0.006688645397236201|True|Cēsu 2. vidusskola|0|-1.0|51.46|29.93|-1.0|-1.0|45.73
2117|viesītesvidusskola|4513900262|Latviešu|VAĻŅU IELA 7, VIESĪTE, VIESĪTES NOVADS, LV-5237|2010|330|1|56.34567|25.55251|Viesītes nov.|Viesīte|--|--|4241|1829|--|352.0|-22.0|0.0|0.0|-22|4241|0.13345076432902603|True|Viesītes vidusskola|0|67.55|57.74|51.16|67.08|45.15|52.77
2119|vanagupamatskola|4212900371|Latviešu|VANAGI, UPMALAS PAGASTS, VĀRKAVAS NOVADS, LV-5316|2010|31|1|56.28883|26.37653|Līvānu nov.|Līvāni|--|--|13003|8421|--|39.0|-8.0|0.0|0.0|-8|13003|0.0601886874753081|True|Vanagu pamatskola|0|72.84|-1.0|-1.0|86.83|65.0|-1.0
2120|vandzenespamatskola|4112902872|Latviešu|VANDZENES SKOLA, VANDZENES PAGASTS, TALSU NOVADS, LV-3281|2010|160|1|57.32769|22.80174|Mērsraga nov.|--|--|--|1689|--|--|200.0|-40.0|0.0|0.0|-40|1689|0.11308275244262221|True|Vandzenes pamatskola|0|-1.0|-1.0|-1.0|-1.0|-1.0|-1.0
2122|vārkavaspamatskola|4212900353|Latviešu|VĀRKAVA, VĀRKAVAS PAGASTS, VĀRKAVAS NOVADS, LV-5337|2010|53|1|56.24776|26.56834|Vārkavas nov.|--|Vārkavas pag.|--|2196|--|--|56.0|-3.0|0.0|0.0|-3|2196|0.07630264281137168|True|Vārkavas pamatskola|0|59.77|-1.0|-1.0|55.0|35.5|-1.0
2123|vārmespamatskola|4112901178|Latviešu|VĀRME, VĀRMES PAGASTS, KULDĪGAS NOVADS, LV-3333|2010|110|1|56.87474|22.24066|Kuldīgas nov.|--|Vārmes pag.|--|25518|--|--|111.0|-1.0|0.0|0.0|-1|25518|0.1674107275535276|True|Vārmes pamatskola|0|68.54|-1.0|-1.0|59.22|52.0|-1.0
2124|randenespamatskola|4212900498|Krievu|VĀRPAS IELA 2, RANDENE, KALKŪNES PAGASTS, DAUGAVPILS NOVADS, LV-5449|2010|50|1|55.85217|26.46102|Daugavpils nov.|--|Kalkūnes pag.|--|26007|--|--|52.0|-2.0|0.0|0.0|-2|26007|0.04346943983996011|True|Randenes pamatskola|0|-1.0|-1.0|-1.0|44.11|54.52|-1.0
2125|jpilsudskadaugavpilsvalstspoļuģimnāzija|2716901232|Poļu|VARŠAVAS IELA 2, DAUGAVPILS, LV-5404|2010|285|1|55.87104|26.53943|--|--|--|Daugavpils|--|--|95962|271.0|14.0|0.0|0.0|14|95962|0.0026521123656402003|True|J.Pilsudska Daugavpils valsts poļu ģimnāzija|0|-1.0|-1.0|-1.0|-1.0|-1.0|-1.0
2126|daugavpils17vidusskola|2713901235|LK|VARŠAVAS IELA 45, DAUGAVPILS, LV-5404|2010|360|1|55.87776|26.53359|--|--|--|Daugavpils|--|--|95962|399.0|-39.0|0.0|0.0|-39|95962|0.008011304512999142|True|Daugavpils 17. vidusskola|0|-1.0|33.11|30.21|43.48|47.44|35.76
2128|bebruinternātvidusskola|4513900706|Latviešu|VECBEBRI, BEBRU PAGASTS, KOKNESES NOVADS, LV-5135|2010|119|1|56.72463|25.48497|Kokneses nov.|--|Bebru pag.|--|5625|--|--|131.0|-12.0|0.0|0.0|-12|5625|0.047478434051677426|True|Bebru internātvidusskola|0|-1.0|-1.0|-1.0|-1.0|-1.0|-1.0
2129|bebrupamatskola|4512900987|Latviešu|VECBEBRI, BEBRU PAGASTS, KOKNESES NOVADS, LV-5135|2010|112|1|56.72463|25.48497|Kokneses nov.|--|Bebru pag.|--|5625|--|--|119.0|-7.0|0.0|0.0|-7|5625|0.047478434051677426|True|Bebru pamatskola|0|61.82|-1.0|-1.0|64.1|44.0|-1.0
2131|vecsaulespamatskola|4512901302|Latviešu|VECSAULES PAGASTS, BAUSKAS NOVADS, LV-3932|2010|147|1|56.43255|24.33592|Bauskas nov.|--|Vecsaules pag.|--|26397|--|--|151.0|-4.0|0.0|0.0|-4|26397|0.08633346106811665|True|Vecsaules pamatskola|0|66.65|-1.0|-1.0|59.33|49.67|-1.0
2132|skujenespamatskola|512900318|Latviešu|Vecskujene, SKUJENES PAGASTS, AMATAS NOVADS, LV-4143|2010|63|1|57.07626|25.57605|Amatas nov.|--|Skujenes pag.|--|5882|--|--|70.0|-7.0|0.0|0.0|-7|5882|0.08046242414941333|True|Skujenes pamatskola|0|-1.0|-1.0|-1.0|-1.0|-1.0|-1.0
2118|ulbrokasvidusskola|4313901107|Latviešu|VĀLODZES, STOPIŅU NOVADS, LV-2130|2010|544|1|56.92752|24.31176|Stopiņu nov.|--|--|--|9924|--|--|508.0|36.0|0.0|0.0|36|9924|0.055505711417836716|True|Ulbrokas vidusskola|0|68.68|46.83|30.94|64.24|36.95|59.68
2100|jaunjelgavasvidusskola|113901040|Latviešu|UZVARAS IELA 1, JAUNJELGAVA, JAUNJELGAVAS NOVADS, LV-5134|2010|219|1|56.61115|25.08262|Jaunjelgavas nov.|Jaunjelgava|--|--|5928|2077|--|257.0|-38.0|0.0|0.0|-38|5928|0.05256641988950599|True|Jaunjelgavas vidusskola|2|69.62|59.81|29.27|68.38|54.99|56.92
2099|uzvarasvidusskola|413901292|Latviešu|UZVARA, GAILĪŠU PAGASTS, BAUSKAS NOVADS, LV-3931|2010|214|1|56.31684|24.25624|Bauskas nov.|--|Gailīšu pag.|--|26397|--|--|233.0|-19.0|0.0|0.0|-19|26397|0.005119814449767057|True|Uzvaras vidusskola|0|63.57|64.38|44.07|64.43|44.41|52.72
2068|rīgascentrasākumskola|3411900784|Latviešu|TĒRBATAS IELA 69, RĪGA, LV-1001|2010|379|1|56.95863|24.13161|--|--|--|Rīga|--|--|673433|390.0|-11.0|0.0|0.0|-11|673433|0.0026683515510482333|True|Rīgas Centra sākumskola|0|-1.0|-1.0|-1.0|-1.0|-1.0|-1.0
2069|annasbrigaderespamatskola|712900872|Latviešu|TĒRVETES PAGASTS, TĒRVETES NOVADS, LV-3730|2010|93|1|56.48028|23.38087|Dobeles nov.|--|Penkules pag.|--|22874|--|--|95.0|-2.0|0.0|0.0|-2|22874|0.0826516212787161|True|Annas Brigaderes pamatskola|0|69.39|-1.0|-1.0|81.25|43.26|-1.0
2070|tērvetespamatskola|712900879|Latviešu|TĒRVETES PAGASTS, TĒRVETES NOVADS, LV-3730|2010|66|1|56.48028|23.38087|Dobeles nov.|--|Penkules pag.|--|22874|--|--|72.0|-6.0|0.0|0.0|-6|22874|0.0826516212787161|True|Tērvetes pamatskola|0|58.18|-1.0|-1.0|48.0|38.78|-1.0
2071|grundzālespamatskola|2412901221|Latviešu|TILTA IELA 6, GRUNDZĀLE, GRUNDZĀLES PAGASTS, SMILTENES NOVADS, LV-4713|2010|93|1|57.45663|26.26647|Smiltenes nov.|--|Grundzāles pag.|--|13417|--|--|98.0|-5.0|0.0|0.0|-5|13417|0.09250710513252221|True|Grundzāles pamatskola|0|59.51|-1.0|-1.0|50.73|42.05|-1.0
2072|subatespamatskola|4212900508|Latviešu|TIRGUS LAUKUMS 20, SUBATE, ILŪKSTES NOVADS, LV-5471|2010|69|1|56.00467|25.9063|Ilūkstes nov.|Subate|--|--|8353|681|--|80.0|-11.0|0.0|0.0|-11|8353|0.10948560544656047|True|Subates pamatskola|0|60.74|-1.0|-1.0|-1.0|44.24|-1.0
2073|tirzaspamatskola|4412900959|Latviešu|TIRZA, TIRZAS PAGASTS, GULBENES NOVADS, LV-4424|2010|101|1|57.14114|26.4299|Gulbenes nov.|--|Tirzas pag.|--|23574|--|--|106.0|-5.0|0.0|0.0|-5|23574|0.07742348803819261|True|Tirzas pamatskola|0|63.56|-1.0|-1.0|57.25|36.78|-1.0
2074|rīgas4speciālāinternātpamatskola|3720900834|LK|TIRZAS IELA 2, RĪGA, LV-1024|2010|139|1|56.98825|24.22326|Garkalnes nov.|--|--|Rīga|7375|--|673433|143.0|-4.0|0.0|0.0|-4|7375|0.009677256842722649|True|Rīgas 4. speciālā internātpamatskola|0|-1.0|-1.0|-1.0|-1.0|-1.0|-1.0
2076|rīgas21vidusskola|3713900750|Krievu|TOMSONA IELA 35, RĪGA, LV-1013|2010|449|1|56.96743|24.12825|--|--|--|Rīga|--|--|673433|486.0|-37.0|0.0|0.0|-37|673433|0.0015684705926436158|True|Rīgas 21. vidusskola|0|-1.0|-1.0|46.26|54.24|64.31|58.05
2078|trapenessākumskola|4411903171|Latviešu|TRAPENE, TRAPENES PAGASTS, APES NOVADS, LV-4348|2010|57|1|57.4504|26.59134|Apes nov.|--|Trapenes pag.|--|3984|--|--|71.0|-14.0|0.0|0.0|-14|3984|0.11473405989504566|True|Trapenes sākumskola|0|-1.0|-1.0|-1.0|-1.0|-1.0|-1.0
2079|ķemeruvidusskola|2913901345|Latviešu|TUKUMA IELA 10, JŪRMALA, LV-2012|2010|147|1|56.94099|23.49021|--|--|--|Jūrmala|--|--|51749|166.0|-19.0|0.0|0.0|-19|51749|0.06403519344860516|True|Ķemeru vidusskola|0|56.5|49.53|34.26|80.11|52.31|58.74
2080|aizupespamatskola|4512900847|Latviešu|TUŠĶI, LĪVBĒRZES PAGASTS, JELGAVAS NOVADS, LV-3003|2010|192|1|56.64808|23.64591|Jelgavas nov.|--|Glūdas pag.|Jelgava|25327|--|60923|189.0|3.0|0.0|0.0|3|25327|0.0515050182021123|True|Aizupes pamatskola|0|62.14|-1.0|-1.0|62.3|32.55|-1.0
2081|rīgasstilaunmodesprofesionālāvidusskola|3331001255|Latviešu|ŪDEĻU IELA 22, RĪGA, LV-1064|2010|47|1|56.97575|24.26297|--|--|--|Rīga|--|--|673433|34.0|13.0|0.0|0.0|13|673433|0.010540061669648465|True|Rīgas Stila un modes profesionālā vidusskola|0|-1.0|44.78|19.36|-1.0|-1.0|32.53
2084|ugālesvidusskola|4113900055|Latviešu|UGĀLE, UGĀLES PAGASTS, VENTSPILS NOVADS, LV-3615|2010|301|1|57.2213|21.82092|Ventspils nov.|--|Ugāles pag.|--|12525|--|--|314.0|-13.0|0.0|0.0|-13|12525|0.09786013079901051|True|Ugāles vidusskola|0|-1.0|58.09|52.5|63.66|49.13|55.03
2098|užavaspamatskola|4112900047|Latviešu|UŽAVA, UŽAVAS PAGASTS, VENTSPILS NOVADS, LV-3627|2010|90|1|57.22987|21.45901|Ventspils nov.|--|Užavas pag.|--|12525|--|--|93.0|-3.0|0.0|0.0|-3|12525|0.14807930645434478|True|Užavas pamatskola|0|59.09|-1.0|-1.0|56.67|36.31|-1.0
2097|upeslejuinternātpamatskola–rehabilitācijascentrs|4323901692|LK|UPESLEJAS, STOPIŅU NOVADS, LV-2118|2010|166|1|56.92531|24.38|Ropažu nov.|--|--|--|6802|--|--|200.0|-34.0|0.0|0.0|-34|6802|0.005621049724030217|True|Upesleju internātpamatskola – rehabilitācijas centrs|0|-1.0|-1.0|-1.0|-1.0|-1.0|-1.0
2093|rīgas64vidusskola|3713900756|Latviešu|ŪNIJAS IELA 93, RĪGA, LV-1084|2010|937|1|56.96101|24.18455|--|--|--|Rīga|--|--|673433|939.0|-2.0|0.0|0.0|-2|673433|0.0012515989773044464|True|Rīgas 64. vidusskola|0|72.49|67.15|64.15|74.13|54.55|74.36
2133|istrasvidusskola|4213900474|Krievu|VECSLABADA, ISTRAS PAGASTS, LUDZAS NOVADS, LV-5748|2010|118|1|56.26385|27.98636|Ludzas nov.|--|Istras pag.|--|14751|--|--|115.0|3.0|0.0|0.0|3|14751|0.12638986549561418|True|Istras vidusskola|0|-1.0|-1.0|41.94|51.5|60.93|38.85
2092|umurgaspamatskola|4312900175|Latviešu|UMURGA, UMURGAS PAGASTS, LIMBAŽU NOVADS, LV-4004|2010|102|1|57.51811|24.80982|Limbažu nov.|--|Umurgas pag.|--|18369|--|--|95.0|7.0|0.0|0.0|7|18369|0.03955861600208155|True|Umurgas pamatskola|0|66.06|-1.0|-1.0|63.13|54.67|-1.0
2089|liepājasspeciālāinternātpamatskola|3020900938|LK|Ūliha 56, LIEPĀJA, LV-3401|2010|215|1|56.50357|21.00194|--|--|--|Liepāja|--|--|78913|218.0|-3.0|0.0|0.0|-3|78913|0.002204767561443812|True|Liepājas speciālā internātpamatskola|0|-1.0|-1.0|-1.0|-1.0|-1.0|-1.0
2088|liepājascentrapamatskola|3012902612|Latviešu|Ūliha 33, LIEPĀJA, LV-3401|2010|513|1|56.50969|20.99986|--|--|--|Liepāja|--|--|78913|501.0|12.0|0.0|0.0|12|78913|0.0022303587155398873|True|Liepājas Centra pamatskola|0|-1.0|-1.0|-1.0|-1.0|-1.0|-1.0
2087|rīgas92vidusskola|3613900679|Krievu|ULBROKAS IELA 3, RĪGA, LV-1021|2010|933|1|56.94145|24.21503|--|--|--|Rīga|--|--|673433|1028.0|-95.0|0.0|0.0|-95|673433|0.003604400088779068|True|Rīgas 92. vidusskola|0|-1.0|-1.0|35.16|57.61|50.3|37.88
2086|rīgaspļavniekusākumskola|3611901870|Latviešu|ULBROKAS IELA 20, RĪGA, LV-1021|2010|319|1|56.94246|24.21849|--|--|--|Rīga|--|--|673433|328.0|-9.0|0.0|0.0|-9|673433|0.003604400088779068|False|Rīgas Pļavnieku sākumskola|0|-1.0|-1.0|-1.0|-1.0|-1.0|-1.0
2085|upesgrīvasinternātpamatskola|4122901278|Latviešu|UGUŅCIEMS, VANDZENES PAGASTS, TALSU NOVADS, LV-3284|2010|84|1|57.38042|22.96034|Mērsraga nov.|--|--|--|1689|--|--|0.0|0.0|0.0|0.0|84|1689|0.0015681836627109164|True|Upesgrīvas internātpamatskola|0|-1.0|-1.0|-1.0|-1.0|-1.0|-1.0
2067|rīgas40vidusskola|3413900797|Krievu|TĒRBATAS IELA 15/17, RĪGA, LV-1011|2010|927|1|56.95428|24.12192|--|--|--|Rīga|--|--|673433|958.0|-31.0|0.0|0.0|-31|673433|0.002085689334487622|True|Rīgas 40. vidusskola|8|-1.0|-1.0|63.02|79.11|59.84|79.26
2134|stāmerienaspamatskola|4412900962|Latviešu|VECSTĀMERIENA, STĀMERIENAS PAGASTS, GULBENES NOVADS, LV-4406|2010|97|1|57.21492|26.89268|Gulbenes nov.|--|Stāmerienas pag.|--|23574|--|--|95.0|2.0|0.0|0.0|2|23574|0.12706255624691234|True|Stāmerienas pamatskola|0|65.97|-1.0|-1.0|57.2|40.19|-1.0
2136|saldusnovadapašvaldībasnīgrandespamatskola|4112900412|Latviešu|VENTAS IELA 1, NĪGRANDE, NĪGRANDES PAGASTS, SALDUS NOVADS, LV-3899|2010|142|1|56.48657|22.094|Saldus nov.|--|Nīgrandes pag.|--|26579|--|--|152.0|-10.0|0.0|0.0|-10|26579|0.05208597699957522|True|Saldus novada pašvaldības Nīgrandes pamatskola|0|-1.0|-1.0|-1.0|-1.0|-1.0|-1.0
2172|zaļeniekupamatskola|4512900844|Latviešu|Zaļenieku izglītības centrs, ZAĻENIEKI, ZAĻENIEKU PAGASTS, JELGAVAS NOVADS, LV-3011|2010|137|1|56.52665|23.50944|Jelgavas nov.|--|Zaļenieku pag.|--|25327|--|--|147.0|-10.0|0.0|0.0|-10|25327|0.0043832065887890945|True|Zaļenieku pamatskola|0|59.58|-1.0|-1.0|60.78|24.98|-1.0
2173|zasasvidusskola|4513900263|Latviešu|ZASA, ZASAS PAGASTS, JĒKABPILS NOVADS, LV-5239|2010|143|1|56.2863|25.98704|Jēkabpils nov.|--|Zasas pag.|--|5316|--|--|163.0|-20.0|0.0|0.0|-20|5316|0.06562097378125509|True|Zasas vidusskola|0|76.43|47.34|30.14|63.38|39.59|49.22
2174|olaines1vidusskola|4313901122|LK|ZEIFERTA IELA 4, OLAINE, OLAINES NOVADS, LV-2114|2010|796|1|56.7879|23.94187|Olaines nov.|Olaine|--|--|20136|12279|--|821.0|-25.0|0.0|0.0|-25|20136|0.00898818112857255|True|Olaines 1. vidusskola|0|67.24|63.3|46.22|65.37|48.54|60.79
2175|fričabrīvzemniekapamatskola|3812900716|Latviešu|ZEĻĻU IELA 4, RĪGA, LV-1004|2010|349|1|56.93545|24.07462|--|--|--|Rīga|--|--|673433|382.0|-33.0|0.0|0.0|-33|673433|0.006393441952497667|True|Friča Brīvzemnieka pamatskola|0|70.44|-1.0|-1.0|72.87|32.12|-1.0
2177|zemgalesvidusskola|4213900517|Krievu|ZEMGALE, DEMENES PAGASTS, DAUGAVPILS NOVADS, LV-5442|2010|209|1|55.71789|26.47329|Daugavpils nov.|--|Demenes pag.|--|26007|--|--|193.0|16.0|0.0|0.0|16|26007|0.13483942783919323|True|Zemgales vidusskola|0|52.34|51.66|50.28|54.67|43.52|41.44
2178|jelgavas1pamatskola|2822900152|LK|ZEMGALES PROSPEKTS 7, JELGAVA, LV-3001|2010|112|1|56.64456|23.73149|Jelgavas nov.|--|Jaunsvirlaukas pag.|Jelgava|25327|--|60923|114.0|-2.0|0.0|0.0|-2|25327|0.002002623279601165|True|Jelgavas 1. pamatskola|0|-1.0|-1.0|-1.0|-1.0|-1.0|-1.0
2182|inešupamatskola|4412901151|Latviešu|Zemnieki, INEŠI, INEŠU PAGASTS, VECPIEBALGAS NOVADS, LV-4123|2010|52|1|57.02108|25.84256|Vecpiebalgas nov.|--|Inešu pag.|--|4345|--|--|56.0|-4.0|0.0|0.0|-4|4345|0.05178790354870714|True|Inešu pamatskola|0|-1.0|-1.0|-1.0|-1.0|-1.0|-1.0
2183|ķeipenespamatskola|4312900196|Latviešu|ZIEDU IELA 3, ĶEIPENE, ĶEIPENES PAGASTS, OGRES NOVADS, LV-5062|2010|96|1|56.89072|25.18434|Ogres nov.|--|Ķeipenes pag.|--|36984|--|--|96.0|0.0|0.0|0.0|0|36984|0.05231122441694632|True|Ķeipenes pamatskola|0|73.33|-1.0|-1.0|55.33|-1.0|-1.0
2185|aizputesvidusskola|4113901044|Latviešu|ZIEDU IELA 7, AIZPUTE, AIZPUTES NOVADS, LV-3456|2010|570|1|56.72042|21.60999|Aizputes nov.|Aizpute|--|--|9675|4773|--|603.0|-33.0|0.0|0.0|-33|9675|0.03766850806708764|True|Aizputes vidusskola|0|62.62|54.62|53.21|58.43|44.85|53.46
2171|rīgas15vidusskola|3613900677|Krievu|VISVALŽA IELA 9, RĪGA, LV-1050|2010|423|1|56.94764|24.13131|--|--|--|Rīga|--|--|673433|427.0|-4.0|0.0|0.0|-4|673433|0.0013843771162486578|True|Rīgas 15. vidusskola|0|-1.0|-1.0|47.29|60.61|41.16|49.38
2186|rīgasrīnūžuvidusskola|3913900818|Krievu|ZIEMEĻBLĀZMAS IELA 59, RĪGA, LV-1015|2010|602|1|57.0388594|24.0947642|--|--|--|Rīga|--|--|673433|605.0|-3.0|0.0|0.0|-3|673433|0.010647714214797863|True|Rīgas Rīnūžu vidusskola|0|-1.0|-1.0|51.86|64.57|56.17|57.73
2188|andzeļupamatskola|4212900567|Latviešu|Zīles, ANDZEĻI, ANDZEĻU PAGASTS, DAGDAS NOVADS, LV-5696|2010|70|1|56.16678|27.55266|Dagdas nov.|--|Andzeļu pag.|--|8596|--|--|73.0|-3.0|0.0|0.0|-3|8596|0.0717849343525502|True|Andzeļu pamatskola|0|59.77|-1.0|-1.0|-1.0|58.17|-1.0
2189|ogres1vidusskola|4313900189|Latviešu|ZINĪBU IELA 3, OGRE, OGRES NOVADS, LV-5001|2010|967|1|56.81745|24.61037|Ikšķiles nov.|--|Tīnūžu pag.|--|8605|--|--|999.0|-32.0|0.0|0.0|-32|8605|0.005870511051007135|True|Ogres 1. vidusskola|0|73.0|59.69|51.39|72.03|-1.0|65.41
2190|ilzenespamatskola|4412900905|Latviešu|Zinīši, JAUNZEMI, ILZENES PAGASTS, ALŪKSNES NOVADS, LV-4344|2010|75|1|57.37407|26.677|Alūksnes nov.|--|Ilzenes pag.|--|17712|--|--|73.0|2.0|0.0|0.0|2|17712|0.11473405989504566|True|Ilzenes pamatskola|0|77.5|-1.0|-1.0|71.0|61.0|-1.0
2191|saldusnovadapašvaldībaszirņupamatskola|4112901264|Latviešu|ZIRŅI, ZIRŅU PAGASTS, SALDUS NOVADS, LV-3853|2010|70|1|56.67421|22.21871|Saldus nov.|--|Zirņu pag.|--|26579|--|--|86.0|-16.0|0.0|0.0|-16|26579|0.12860175582005245|True|Saldus novada pašvaldības Zirņu pamatskola|0|63.64|-1.0|-1.0|68.25|52.0|-1.0
2192|zlēkupamatskola|4112900544|Latviešu|ZLĒKAS, ZLĒKU PAGASTS, VENTSPILS NOVADS, LV-3617|2010|53|1|57.12344|21.82076|Ventspils nov.|--|Ziru pag.|--|12525|--|--|52.0|1.0|0.0|0.0|1|12525|0.09786013079901051|True|Zlēku pamatskola|0|48.48|-1.0|-1.0|45.0|35.11|-1.0
2193|inčukalnapamatskola|4312901339|Latviešu|ZVAIGŽŅU IELA 2, INČUKALNS, INČUKALNA PAGASTS, INČUKALNA NOVADS, LV-2141|2010|207|1|57.10131|24.68203|Inčukalna nov.|--|Inčukalna pag.|--|7982|--|--|221.0|-14.0|0.0|0.0|-14|7982|0.036337264619121665|True|Inčukalna pamatskola|0|68.06|-1.0|-1.0|59.75|38.42|-1.0
2194|valmieraspārgaujasģimnāzija|2513900630|Latviešu|ZVAIGŽŅU IELA 4, VALMIERA, LV-4201|2010|653|1|57.52992|25.42665|--|--|--|Valmiera|--|--|25888|711.0|-58.0|0.0|0.0|-58|25888|0.003833171011056647|True|Valmieras Pārgaujas ģimnāzija|0|67.91|64.29|46.94|70.73|44.77|61.37
2195|alūksnesnovadajaunannaspamatskola|4412900913|Latviešu|Zvaniņi, JAUNANNAS PAGASTS, ALŪKSNES NOVADS, LV-4340|2010|48|1|57.2808|27.06835|Alūksnes nov.|--|Jaunannas pag.|--|17712|--|--|55.0|-7.0|0.0|0.0|-7|17712|0.1043221917906225|True|Alūksnes novada Jaunannas pamatskola|0|65.36|-1.0|-1.0|53.6|53.87|-1.0
2196|rīgasangļuģimnāzija|3813900699|Latviešu|ZVĀRDES IELA 1, RĪGA, LV-1004|2010|1038|1|56.92569|24.07211|--|--|--|Rīga|--|--|673433|1090.0|-52.0|0.0|0.0|-52|673433|0.005934180651113925|True|Rīgas Angļu ģimnāzija|0|70.93|-1.0|-1.0|77.11|53.45|-1.0
2198|ozolupamatskola|4412901069|Latviešu|ZVĀRTAVAS PAGASTS, VALKAS NOVADS, LV-4735|2010|53|1|57.5519|26.28956|Valkas nov.|--|Zvārtavas pag.|--|9608|--|--|54.0|-1.0|0.0|0.0|-1|9608|0.09802816432026672|True|Ozolu pamatskola|0|60.36|-1.0|-1.0|52.8|44.79|-1.0
2200|starptautiskārīgassākumskola|3511802055|Angļu|ZVEJNIEKU IELA 12, RĪGA, LV-1048|2010|76|1|56.95736|24.07999|--|--|--|Rīga|--|--|673433|73.0|3.0|0.0|0.0|3|673433|0.011608294448368365|False|Starptautiskā Rīgas sākumskola|0|-1.0|-1.0|-1.0|-1.0|-1.0|-1.0
2201|rojasvidusskola|2213900619|Latviešu|ZVEJNIEKU IELA 7, ROJA, ROJAS PAGASTS, ROJAS NOVADS, LV-3264|2010|428|1|57.50179|22.80613|Dundagas nov.|--|Dundagas pag.|--|4425|--|--|468.0|-40.0|0.0|0.0|-40|4425|0.1741553389936725|True|Rojas vidusskola|0|74.11|63.28|40.14|64.31|41.83|53.66
2170|"informācijassistēmumenedžmentaaugstskolasvidusskola""premjers"""|3613801080|Krievu|VISVALŽA IELA 6, RĪGA, LV-1050|2010|123|1|56.94775|24.12993|--|--|--|Rīga|--|--|673433|90.0|33.0|0.0|0.0|33|673433|0.0013843771162486578|True|"Informācijas sistēmu menedžmenta augstskolas vidusskola ""PREMJERS"""|0|-1.0|-1.0|44.96|56.64|54.91|57.79
2169|rīgasukraiņuvidusskola|3613900788|Ukraiņu|VISVALŽA IELA 4, RĪGA, LV-1050|2010|203|1|56.94874|24.12886|--|--|--|Rīga|--|--|673433|220.0|-17.0|0.0|0.0|-17|673433|0.0014577379737139718|True|Rīgas Ukraiņu vidusskola|0|-1.0|-1.0|41.07|67.95|57.6|61.06
2168|mārupespamatskola|4312901121|Latviešu|VISKALNU IELA 7, TĪRAINE, MĀRUPES NOVADS, LV-2167|2010|168|1|56.88503|24.06427|Mārupes nov.|--|--|--|15321|--|--|125.0|43.0|0.0|0.0|43|15321|0.010391559074557967|True|Mārupes pamatskola|0|-1.0|-1.0|-1.0|-1.0|-1.0|-1.0
2137|kuldīgaspamatskola|4112901848|Latviešu|VENTSPILS IELA 16, KULDĪGA, KULDĪGAS NOVADS, LV-3301|2010|340|1|56.97278|21.96575|Kuldīgas nov.|Kuldīga|--|--|25518|12067|--|368.0|-28.0|0.0|0.0|-28|25518|0.0020002499843744226|True|Kuldīgas pamatskola|0|66.07|-1.0|-1.0|72.33|42.47|-1.0
2138|sabilespamatskola|4112903179|Latviešu|VENTSPILS IELA 17A, SABILE, TALSU NOVADS, LV-3294|2010|265|1|57.0485|22.56878|Talsu nov.|Sabile|--|--|32262|1260|--|282.0|-17.0|0.0|0.0|-17|32262|0.07087405872390236|True|Sabiles pamatskola|0|-1.0|-1.0|-1.0|-1.0|-1.0|-1.0
2139|vērgalespamatskola|4112901023|Latviešu|VĒRGALE, VĒRGALES PAGASTS, PĀVILOSTAS NOVADS, LV-3463|2010|98|1|56.6972|21.22255|Pāvilostas nov.|--|Sakas pag.|--|2989|--|--|109.0|-11.0|0.0|0.0|-11|2989|0.10899424067353436|True|Vērgales pamatskola|0|72.22|-1.0|-1.0|68.15|53.42|-1.0
2141|kalsnavaspamatskola|4412900122|Latviešu|VESETAS IELA 6, JAUNKALSNAVA, KALSNAVAS PAGASTS, MADONAS NOVADS, LV-4860|2010|167|1|56.68839|25.971|Madonas nov.|--|Kalsnavas pag.|--|25888|--|--|175.0|-8.0|0.0|0.0|-8|25888|0.07960308348299279|True|Kalsnavas pamatskola|0|62.15|-1.0|-1.0|63.38|41.21|-1.0
2142|vestienaspamatskola|4412900106|Latviešu|Vestienas muiža, VESTIENAS PAGASTS, MADONAS NOVADS, LV-4855|2010|74|1|56.8665|25.87414|Madonas nov.|--|Bērzaunes pag.|--|25888|--|--|84.0|-10.0|0.0|0.0|-10|25888|0.1577728519105831|True|Vestienas pamatskola|0|60.36|-1.0|-1.0|61.67|42.0|-1.0
2143|vidrižupamatskola|4312900176|Latviešu|VIDRIŽI, VIDRIŽU PAGASTS, LIMBAŽU NOVADS, LV-4013|2010|105|1|57.34694|24.66076|Limbažu nov.|--|Skultes pag.|--|18369|--|--|114.0|-9.0|0.0|0.0|-9|18369|0.08312758868149306|True|Vidrižu pamatskola|0|67.81|-1.0|-1.0|60.0|40.94|-1.0
2144|gulbenesbērzusākumskola|4411900950|Latviešu|VIDUS IELA 7, GULBENE, GULBENES NOVADS, LV-4401|2010|204|1|57.1773|26.76232|Gulbenes nov.|Gulbene|--|--|23574|8515|--|207.0|-3.0|0.0|0.0|-3|23574|0.0076568923199951495|True|Gulbenes Bērzu sākumskola|0|-1.0|-1.0|-1.0|-1.0|-1.0|-1.0
2145|balvuprofesionālāunvispārizglītojošāvidusskola|4231903046|Latviešu|VIDZEMES IELA 26, BALVI, BALVU NOVADS, LV-4501|2010|248|1|57.13855|27.2438|Balvu nov.|Balvi|--|--|14643|7454|--|292.0|-44.0|0.0|0.0|-44|14643|0.015235130455629544|True|Balvu profesionālā un vispārizglītojošā vidusskola|0|-1.0|-1.0|-1.0|-1.0|-1.0|-1.0
2146|garkalnesmāksluunvispārizglītojošāpamatskola|4312903195|LK|VIDZEMES ŠOSEJA 34, GARKALNE, GARKALNES NOVADS, LV-2137|2010|157|1|57.04687|24.42386|Ādažu nov.|--|--|--|9855|--|--|295.0|-138.0|0.0|0.0|-138|9855|0.09015705851457376|True|Garkalnes Mākslu un vispārizglītojošā pamatskola|0|-1.0|-1.0|-1.0|-1.0|-1.0|-1.0
2147|rīgas95vidusskola|3813900727|Krievu|VIENĪBAS GATVE 178/2, RĪGA, LV-1058|2010|1060|1|56.90314|24.08157|Mārupes nov.|--|--|Rīga|15321|--|673433|1105.0|-45.0|0.0|0.0|-45|15321|0.0011488956305978658|True|Rīgas 95. vidusskola|0|-1.0|-1.0|49.11|-1.0|62.22|49.68
2148|rīgasziepniekkalnasākumskola|3811900697|Latviešu|VIENĪBAS GATVE 184, RĪGA, LV-1058|2010|289|1|56.9023359|24.0823906|Mārupes nov.|--|--|Rīga|15321|--|673433|294.0|-5.0|0.0|0.0|-5|15321|0.0011488956305978658|True|Rīgas Ziepniekkalna sākumskola|0|-1.0|-1.0|-1.0|-1.0|-1.0|-1.0
2149|kārsavasvidusskola|4213902516|Latviešu|VIENĪBAS IELA 101, KĀRSAVA, KĀRSAVAS NOVADS, LV-5717|2010|351|1|56.78077|27.69083|Kārsavas nov.|Kārsava|--|--|6512|2293|--|332.0|19.0|0.0|0.0|19|6512|0.11097845421522229|True|Kārsavas vidusskola|0|70.55|62.61|48.21|73.11|61.1|63.97
2150|sesavaspamatskola|4512900848|Latviešu|VIENĪBAS, SESAVA, SESAVAS PAGASTS, JELGAVAS NOVADS, LV-3034|2010|121|1|56.42523|23.81935|Jelgavas nov.|--|Sesavas pag.|--|25327|--|--|138.0|-17.0|0.0|0.0|-17|25327|0.132683783862233|True|Sesavas pamatskola|0|57.8|-1.0|-1.0|52.15|44.96|-1.0
2151|valmierasviesturavidusskola|2513900631|Latviešu|VIESTURA ALEJA 3, VALMIERA, LV-4201|2010|780|1|57.55026|25.43311|--|--|--|Valmiera|--|--|25888|777.0|3.0|0.0|0.0|3|25888|0.011246261601084382|True|Valmieras Viestura vidusskola|2|66.89|65.43|41.34|72.19|53.69|65.25
2152|jūrmalasalternatīvāskola|2912901382|Latviešu|VIESTURA IELA 6, JŪRMALA, LV-2010|2010|153|1|56.97285|23.85184|--|--|--|Jūrmala|--|--|51749|144.0|9.0|0.0|0.0|9|51749|0.01379649230783046|True|Jūrmalas Alternatīvā skola|0|74.09|-1.0|-1.0|87.1|63.44|-1.0
2166|codespamatskola|412901308|Latviešu|Virsaiši, CODE, CODES PAGASTS, BAUSKAS NOVADS, LV-3910|2010|123|1|56.46822|24.16744|Bauskas nov.|--|Codes pag.|--|26397|--|--|116.0|7.0|0.0|0.0|7|26397|0.06027126014942776|True|Codes pamatskola|0|62.56|-1.0|-1.0|61.0|51.03|-1.0
2165|vircavasvidusskola|4513900861|Latviešu|VIRCAVA, VIRCAVAS PAGASTS, JELGAVAS NOVADS, LV-3020|2010|302|1|56.631|23.77829|Jelgavas nov.|--|Jaunsvirlaukas pag.|--|25327|--|--|330.0|-28.0|0.0|0.0|-28|25327|0.03793039941787987|True|Vircavas vidusskola|0|62.76|60.29|32.32|56.33|40.62|51.52
2164|kalnezerukatoļupamatskola|4212901141|Latviešu|VIRAUDAS IELA 5, LENDŽI, LENDŽU PAGASTS, RĒZEKNES NOVADS, LV-4625|2010|53|1|56.58357|27.51016|Rēzeknes nov.|--|Lendžu pag.|--|28877|--|--|58.0|-5.0|0.0|0.0|-5|28877|0.14602154156151056|True|Kalnezeru Katoļu pamatskola|0|75.11|-1.0|-1.0|68.33|67.67|-1.0
2163|vīpespamatskola|4512900286|Latviešu|VĪPES PAGASTS, KRUSTPILS NOVADS, LV-5238|2010|54|1|56.46695|26.08998|Krustpils nov.|--|Vīpes pag.|--|6244|--|--|54.0|0.0|0.0|0.0|0|6244|0.07666803571241804|True|Vīpes pamatskola|0|64.65|-1.0|-1.0|78.67|47.26|-1.0
2162|vilpulkassākumskola|4411900652|Latviešu|VILPULKA, VILPULKAS PAGASTS, RŪJIENAS NOVADS, LV-4241|2010|24|1|57.95695|25.23799|Rūjienas nov.|--|Vilpulkas pag.|--|5761|--|--|20.0|4.0|0.0|0.0|4|5761|0.1180710468319803|True|Vilpulkas sākumskola|0|-1.0|-1.0|-1.0|-1.0|-1.0|-1.0
2135|liepupesvidusskola|4313900158|Latviešu|Veiksmes, LIEPUPE, LIEPUPES PAGASTS, SALACGRĪVAS NOVADS, LV-4023|2010|186|1|57.46733|24.46156|Salacgrīvas nov.|--|Liepupes pag.|--|8668|--|--|202.0|-16.0|0.0|0.0|-16|8668|0.13915407575776997|True|Liepupes vidusskola|0|64.36|55.54|43.75|66.25|60.0|49.87
2161|baumaņukārļaviļķenespamatskola|4312900178|Latviešu|VIĻĶENE, VIĻĶENES PAGASTS, LIMBAŽU NOVADS, LV-4050|2010|85|1|57.61197|24.61375|Limbažu nov.|--|Viļķenes pag.|--|18369|--|--|95.0|-10.0|0.0|0.0|-10|18369|0.10321565046058069|True|Baumaņu Kārļa Viļķenes pamatskola|0|56.45|-1.0|-1.0|57.67|54.53|-1.0
2159|svētespamatskola|4512900842|Latviešu|VILCES IELA 6, SVĒTE, SVĒTES PAGASTS, JELGAVAS NOVADS, LV-3008|2010|183|1|56.64988|23.72209|Jelgavas nov.|--|Svētes pag.|Jelgava|25327|--|60923|180.0|3.0|0.0|0.0|3|25327|0.0016182088863895905|True|Svētes pamatskola|0|58.82|-1.0|-1.0|53.14|27.14|-1.0
2158|vilcespamatskola|4512900843|Latviešu|VILCE, VILCES PAGASTS, JELGAVAS NOVADS, LV-3026|2010|109|1|56.42103|23.54584|Jelgavas nov.|--|Vilces pag.|--|25327|--|--|108.0|1.0|0.0|0.0|1|25327|0.111716356904433|True|Vilces pamatskola|0|58.67|-1.0|-1.0|66.0|45.33|-1.0
2157|rēzeknes4vidusskola|3113900064|Krievu|VIĻĀNU IELA 2, RĒZEKNE, LV-4601|2010|313|1|56.50306|27.32221|Rēzeknes nov.|--|Griškānu pag.|Rēzekne|28877|--|33456|323.0|-10.0|0.0|0.0|-10|28877|0.00831600865800589|True|Rēzeknes 4. vidusskola|0|-1.0|-1.0|28.69|54.81|49.78|27.9
2156|rīgas32vidusskola|3613900662|Krievu|VIĻĀNU IELA 13, RĪGA, LV-1003|2010|356|1|56.94165|24.15224|--|--|--|Rīga|--|--|673433|371.0|-15.0|0.0|0.0|-15|673433|0.006523710600569317|True|Rīgas 32. vidusskola|0|-1.0|-1.0|45.91|41.92|49.28|52.8
2154|rīgassergejažoltokavidusskola|3613900665|Krievu|VIETALVAS IELA 15, RĪGA, LV-1035|2010|355|1|56.9451|24.16952|--|--|--|Rīga|--|--|673433|379.0|-24.0|0.0|0.0|-24|673433|0.008035322022174447|True|Rīgas Sergeja Žoltoka vidusskola|0|-1.0|-1.0|39.59|63.91|50.06|56.88
2160|vilgālespamatskola|4112901193|Latviešu|VILGĀLE, KURMĀLES PAGASTS, KULDĪGAS NOVADS, LV-3332|2010|125|1|56.88196|21.82128|Kuldīgas nov.|--|Īvandes pag.|--|25518|--|--|110.0|15.0|0.0|0.0|15|25518|0.06916472583622313|True|Vilgāles pamatskola|0|65.45|-1.0|-1.0|44.5|33.89|-1.0
2066|rīgas3speciālāpamatskola|3820900729|LK|TELTS IELA 1a, RĪGA, LV-1004|2010|129|1|56.91934|24.0898|--|--|--|Rīga|--|--|673433|132.0|-3.0|0.0|0.0|-3|673433|0.007772779425660396|True|Rīgas 3. speciālā pamatskola|0|-1.0|-1.0|-1.0|-1.0|-1.0|-1.0
2064|daugavpils10vidusskola|2713900714|Krievu|TAUTAS IELA 11, DAUGAVPILS, LV-5404|2010|832|1|55.8734|26.54064|--|--|--|Daugavpils|--|--|95962|880.0|-48.0|0.0|0.0|-48|95962|0.0026521123656402003|True|Daugavpils 10. vidusskola|0|-1.0|-1.0|58.0|54.57|49.14|57.37
1965|šķibespamatskola|4512900845|Latviešu|SKOLAS IELA 3, NĀKOTNE, GLŪDAS PAGASTS, JELGAVAS NOVADS, LV-3040|2010|128|1|56.61874|23.44118|Jelgavas nov.|--|Glūdas pag.|--|25327|--|--|126.0|2.0|0.0|0.0|2|25327|0.07384842042996143|True|Šķibes pamatskola|0|54.88|-1.0|-1.0|48.67|37.45|-1.0
1966|salasvidusskola|4513900261|Latviešu|SKOLAS IELA 3, SALA, SALAS PAGASTS, SALAS NOVADS, LV-5230|2010|293|1|56.50826|25.76215|Jēkabpils nov.|--|Ābeļu pag.|--|5316|--|--|307.0|-14.0|0.0|0.0|-14|5316|0.09306271648732654|True|Salas vidusskola|0|69.87|63.96|39.37|60.45|38.47|59.08
1967|siguldas3pamatskola|2012901115|Latviešu|SKOLAS IELA 3, SIGULDA, SIGULDAS NOVADS, LV-2150|2010|495|1|57.16224|24.86069|Krimuldas nov.|--|Krimuldas pag.|--|5425|--|--|494.0|1.0|0.0|0.0|1|5425|0.004003860636931566|False|Siguldas 3. pamatskola|0|-1.0|-1.0|-1.0|-1.0|-1.0|-1.0
1968|valdemārpilsvidusskola|4113900616|Latviešu|SKOLAS IELA 3, VALDEMĀRPILS, TALSU NOVADS, LV-3260|2010|386|1|57.37383|22.59489|Talsu nov.|Valdemārpils|--|--|32262|1296|--|391.0|-5.0|0.0|0.0|-5|32262|0.09209463502289458|True|Valdemārpils vidusskola|0|68.36|49.51|28.35|55.63|37.93|44.03
1969|zaķumuižaspamatskola|4312901131|Latviešu|SKOLAS IELA 3, ZAĶUMUIŽA, ROPAŽU NOVADS, LV-2133|2010|141|1|56.969|24.48901|Ropažu nov.|--|--|--|6802|--|--|125.0|16.0|0.0|0.0|16|6802|0.10152959863999984|True|Zaķumuižas pamatskola|0|45.68|-1.0|-1.0|55.14|30.83|-1.0
