|School_Name|Reg_nr|Language|Address|Year|Number_of_students|Active|LAT|LON|Novads|Novada pilsēta|Pagasts|Republikas pilsēta|Novada populācija|Novada pilsētas populācija|Republikas pilsētas populācija|reg_iedz_skaits|dist_to_nierest|Y|School_Name_original|cnt_olympiad_entries|MAT9|MAT12|LAT12|LAT9|ANG9|ANG12
0|brocēnunovadabrocēnuvidusskola|4113901049|LK|EZERA IELA 6, BROCĒNI, BROCĒNU NOVADS, LV-3851|2009|519|1|56.68262|22.56236|Brocēnu nov.|Brocēni|--|--|6827|3274|--|6827|0.05751859873119347|False| Brocēnu novada Brocēnu vidusskola|0|-1.0|-1.0|-1.0|-1.0|-1.0|-1.0
8646|kalnciemavidusskola|4513900858|Latviešu|VALGUNDES PAGASTS, JELGAVAS NOVADS, LV-3017|2009|205|1|56.74973|23.67888|Jelgavas nov.|--|Kalnciema pag.|--|25920|--|--|25920|0.0847524925887121|True|Kalnciema vidusskola|0|-1.0|-1.0|-1.0|-1.0|-1.0|-1.0
8657|kalnezerukatoļupamatskola|4212901141|Latviešu|VIRAUDAS IELA 5, LENDŽI, LENDŽU PAGASTS, RĒZEKNES NOVADS, LV-4625|2009|58|1|56.58357|27.51016|Rēzeknes nov.|--|Lendžu pag.|--|29737|--|--|29737|0.14602154156151056|True|Kalnezeru Katoļu pamatskola|0|-1.0|-1.0|-1.0|-1.0|-1.0|-1.0
8668|kalniešupamatskola|1112900561|Krievu|KALNIEŠU PAGASTS, KRĀSLAVAS NOVADS, LV-5660|2009|54|1|55.86877|27.37903|Krāslavas nov.|--|Kalniešu pag.|--|18757|--|--|18757|0.09545525077229117|True|Kalniešu pamatskola|0|-1.0|-1.0|-1.0|-1.0|-1.0|-1.0
2156|"privātāsākumskola""namiņš"""|3711802689|Latviešu|ĀRAIŠU IELA 32, RĪGA, LV-1039|2009|6|1|56.9734|24.17469|--|--|--|Rīga|--|--|687443|687443|0.0024596747752503915|True|"Privātā sākumskola ""Namiņš"""|0|-1.0|-1.0|-1.0|-1.0|-1.0|-1.0
12848|talsuvalstsģimnāzija|4119902544|Latviešu|BRĪVĪBAS IELA 29, TALSI, TALSU NOVADS, LV-3201|2009|369|1|57.24018|22.59155|Talsu nov.|Talsi|--|--|33161|10946|--|33161|0.0073139114022503764|True|Talsu Valsts ģimnāzija|0|-1.0|-1.0|-1.0|-1.0|-1.0|-1.0
8701|kalsnavaspamatskola|4412900122|Latviešu|VESETAS IELA 6, JAUNKALSNAVA, KALSNAVAS PAGASTS, MADONAS NOVADS, LV-4860|2009|175|1|56.68839|25.971|Madonas nov.|--|Kalsnavas pag.|--|26712|--|--|26712|0.07960308348299279|True|Kalsnavas pamatskola|0|-1.0|-1.0|-1.0|-1.0|-1.0|-1.0
8635|kalnciemapilsētasvidusskola|4513902499|Latviešu|LIELUPES IELA 21, KALNCIEMS, JELGAVAS NOVADS, LV-3016|2009|201|1|56.8011|23.61147|Jelgavas nov.|--|Kalnciema pag.|--|25920|--|--|25920|0.0847524925887121|False|Kalnciema pilsētas vidusskola|0|-1.0|-1.0|-1.0|-1.0|-1.0|-1.0
8712|kalupespamatskola|4212900502|Latviešu|LIELĀ IELA 35, KALUPE, KALUPES PAGASTS, DAUGAVPILS NOVADS, LV-5450|2009|115|1|56.09764|26.54753|Daugavpils nov.|--|Kalupes pag.|--|26747|--|--|26747|0.10497444736696826|True|Kalupes pamatskola|0|-1.0|-1.0|-1.0|-1.0|-1.0|-1.0
8723|kalvenespamatskola|1312901020|Latviešu|SKOLAS IELA 1, KALVENE, KALVENES PAGASTS, AIZPUTES NOVADS, LV-3443|2009|71|1|56.60404|21.73035|Aizputes nov.|--|Kalvenes pag.|--|9965|--|--|9965|0.11708157839728972|True|Kalvenes pamatskola|0|-1.0|-1.0|-1.0|-1.0|-1.0|-1.0
8734|kandavasinternātvidusskola|4313900352|Latviešu|TALSU IELA 18, KANDAVA, KANDAVAS NOVADS, LV-3120|2009|404|1|57.03903|22.7709|Kandavas nov.|Kandava|--|--|9466|3971|--|9466|0.0038780665285672454|True|Kandavas internātvidusskola|0|-1.0|-1.0|-1.0|-1.0|-1.0|-1.0
8745|kandavaskārļamīlenbahavidusskola|4313900205|Latviešu|SKOLAS IELA 10, KANDAVA, KANDAVAS NOVADS, LV-3120|2009|480|1|57.0364|22.76805|Kandavas nov.|Kandava|--|--|9466|3971|--|9466|0.0038780665285672454|True|Kandavas Kārļa Mīlenbaha vidusskola|0|-1.0|-1.0|-1.0|-1.0|-1.0|-1.0
2112|privātārīgastehnolingvistiskāģimnāzija|3413801138|Krievu|ĢERTRŪDES IELA 27, RĪGA, LV-1011|2009|49|1|56.95616|24.12543|--|--|--|Rīga|--|--|687443|687443|0.0005437830449760305|True|Privātā Rīgas Tehnolingvistiskā ģimnāzija|0|-1.0|-1.0|-1.0|-1.0|-1.0|-1.0
8767|kapsēdespamatskola|4112901021|Latviešu|KAPSĒDE, MEDZES PAGASTS, GROBIŅAS NOVADS, LV-3461|2009|126|1|56.59122|21.13992|Grobiņas nov.|--|Grobiņas pag.|--|9701|--|--|9701|0.061219092610067805|True|Kapsēdes pamatskola|0|-1.0|-1.0|-1.0|-1.0|-1.0|-1.0
8778|kārķupamatskola|4412901217|Latviešu|KĀRĶI, KĀRĶU PAGASTS, VALKAS NOVADS, LV-4716|2009|62|1|57.81535|25.60845|Valkas nov.|--|Kārķu pag.|--|9921|--|--|9921|0.0068522769938154145|True|Kārķu pamatskola|0|-1.0|-1.0|-1.0|-1.0|-1.0|-1.0
8800|kārsavasvidusskola|4213902516|Latviešu|VIENĪBAS IELA 101, KĀRSAVA, KĀRSAVAS NOVADS, LV-5717|2009|332|1|56.78077|27.69083|Kārsavas nov.|Kārsava|--|--|6713|2345|--|6713|0.11097845421522229|True|Kārsavas vidusskola|0|-1.0|-1.0|-1.0|-1.0|-1.0|-1.0
2090|"privātāpamatskola""maksima"""|3612801468|Krievu|BULTU IELA 10, RĪGA, LV-1057|2009|64|1|56.90872|24.19791|Stopiņu nov.|--|--|Rīga|9608|--|687443|9608|0.004124427232961416|True|"Privātā pamatskola ""Maksima"""|0|-1.0|-1.0|-1.0|-1.0|-1.0|-1.0
8613|kalētupamatskola|4112901018|Latviešu|KALĒTU PAGASTS, PRIEKULES NOVADS, LV-3484|2009|66|1|56.36516|21.48424|Grobiņas nov.|--|Bārtas pag.|--|9701|--|--|9701|0.007288689868559745|True|Kalētu pamatskola|0|-1.0|-1.0|-1.0|-1.0|-1.0|-1.0
2288|"privātāvidusskola""templum"""|3513802325|Krievu|MEŽA IELA 4, RĪGA, LV-1055|2009|38|1|56.94384|24.08099|--|--|--|Rīga|--|--|687443|687443|0.003387580257351694|True|"Privātā vidusskola ""Templum"""|0|-1.0|-1.0|-1.0|-1.0|-1.0|-1.0
12870|tetelespamatskola|4512900841|LK|SKOLAS IELA 10, TETELE, CENU PAGASTS, OZOLNIEKU NOVADS, LV-3043|2009|182|1|56.63751|23.83981|Ozolnieku nov.|--|Cenu pag.|--|9915|--|--|9915|0.061863482766493005|True|Teteles pamatskola|0|-1.0|-1.0|-1.0|-1.0|-1.0|-1.0
8459|jaunstrūžānupamatskola|4212901156|Latviešu|MIERA IELA 12, STRŪŽĀNI, STRUŽĀNU PAGASTS, RĒZEKNES NOVADS, LV-4643|2009|94|1|56.6952|27.23659|Rēzeknes nov.|--|Stružānu pag.|--|29737|--|--|29737|0.06529300804833588|True|Jaunstrūžānu pamatskola|0|-1.0|-1.0|-1.0|-1.0|-1.0|-1.0
8470|jersikaspamatskola|4212900365|Latviešu|JERSIKA, JERSIKAS PAGASTS, LĪVĀNU NOVADS, LV-5315|2009|91|1|56.25391|26.20202|Līvānu nov.|--|Jersikas pag.|--|13373|--|--|13373|0.03886666566609367|True|Jersikas pamatskola|0|-1.0|-1.0|-1.0|-1.0|-1.0|-1.0
13431|vidučupamatskola|4212900429|Latviešu|SEMENOVA, MEDŅEVAS PAGASTS, VIĻAKAS NOVADS, LV-4586|2009|85|1|57.13582|27.64409|Viļakas nov.|--|Medņevas pag.|--|6105|--|--|6105|0.06359383382058284|True|Viduču pamatskola|0|-1.0|-1.0|-1.0|-1.0|-1.0|-1.0
8481|jerupamatskola|2512900639|Latviešu|Straume, JERI, JERU PAGASTS, RŪJIENAS NOVADS, LV-4234|2009|106|1|57.88514|25.35279|Rūjienas nov.|--|Jeru pag.|--|5925|--|--|5925|0.017338402463894998|True|Jeru pamatskola|0|-1.0|-1.0|-1.0|-1.0|-1.0|-1.0
8492|juglassanatorijasinternātpamatskola|4323001692|LK|UPESLEJAS, STOPIŅU NOVADS, LV-2118|2009|200|1|56.92531|24.38|Ropažu nov.|--|--|--|6703|--|--|6703|0.005621049724030217|False|Juglas sanatorijas internātpamatskola|0|-1.0|-1.0|-1.0|-1.0|-1.0|-1.0
8525|jumpravasspeciālāinternātpamatskola|4320901056|Latviešu|JUMPRAVA, JUMPRAVAS PAGASTS, LIELVĀRDES NOVADS, LV-5022|2009|65|1|56.67286|24.97674|Lielvārdes nov.|--|Jumpravas pag.|--|10683|--|--|10683|0.002448130470380658|True|Jumpravas speciālā internātpamatskola|0|-1.0|-1.0|-1.0|-1.0|-1.0|-1.0
8536|jumpravasvidusskola|4313901325|Latviešu|OZOLU IELA 14, JUMPRAVA, JUMPRAVAS PAGASTS, LIELVĀRDES NOVADS, LV-5022|2009|188|1|56.6728002|24.9742926|Lielvārdes nov.|--|Jumpravas pag.|--|10683|--|--|10683|0.002448130470380658|True|Jumpravas vidusskola|0|-1.0|-1.0|-1.0|-1.0|-1.0|-1.0
8547|juraneikenadikļupamatskola|4412900648|Latviešu|DIKĻI, DIKĻU PAGASTS, VALMIERAS NOVADS, LV-4223|2009|118|1|57.53481|25.38891|Kocēnu nov.|--|Dikļu pag.|--|6652|--|--|6652|0.003587659404122001|True|Jura Neikena Dikļu pamatskola|0|-1.0|-1.0|-1.0|-1.0|-1.0|-1.0
2233|"privātāvidusskola""maxvel"""|3713802710|Krievu|DZELZAVAS IELA 9, RĪGA, LV-1084|2009|27|1|56.96381|24.17173|--|--|--|Rīga|--|--|687443|687443|0.004011545836706858|True|"Privātā vidusskola ""MAXVEL"""|0|-1.0|-1.0|-1.0|-1.0|-1.0|-1.0
8558|jūrkalnespamatskola|4112900053|Latviešu|JŪRKALNE, JŪRKALNES PAGASTS, VENTSPILS NOVADS, LV-3626|2009|45|1|57.00935|21.39181|Ventspils nov.|--|Jūrkalnes pag.|--|12821|--|--|12821|0.1793962998503594|True|Jūrkalnes pamatskola|0|-1.0|-1.0|-1.0|-1.0|-1.0|-1.0
2222|"privātāvidusskola""laisma"""|3613801461|LK|PRŪŠU IELA 13a, RĪGA, LV-1057|2009|57|1|56.91424|24.18874|Stopiņu nov.|--|--|Rīga|9608|--|687443|9608|0.0032920662204748187|True|"Privātā vidusskola ""Laisma"""|0|-1.0|-1.0|-1.0|-1.0|-1.0|-1.0
8569|kvaldemārapamatskola|4412900945|Latviešu|PILSKALNS, BEĻAVAS PAGASTS, GULBENES NOVADS, LV-4409|2009|81|1|57.28826|26.78892|Gulbenes nov.|--|Beļavas pag.|--|24310|--|--|24310|0.11410381939269078|True|K. Valdemāra pamatskola|0|-1.0|-1.0|-1.0|-1.0|-1.0|-1.0
12859|tērvetespamatskola|712900879|Latviešu|TĒRVETES PAGASTS, TĒRVETES NOVADS, LV-3730|2009|72|1|56.48028|23.38087|Dobeles nov.|--|Penkules pag.|--|23462|--|--|23462|0.0826516212787161|True|Tērvetes pamatskola|0|-1.0|-1.0|-1.0|-1.0|-1.0|-1.0
2211|"privātāvidusskola""klasika"""|3713801443|LK|KRIMULDAS IELA 2, RĪGA, LV-1039|2009|128|1|56.97113|24.15671|--|--|--|Rīga|--|--|687443|687443|0.004317696144936866|True|"Privātā vidusskola ""Klasika"""|0|-1.0|-1.0|-1.0|-1.0|-1.0|-1.0
8591|kaibalaspamatskola|4312900522|Latviešu|KAIBALA, LIELVĀRDES NOVADS, LV-5070|2009|77|1|56.70174|24.87278|Ķeguma nov.|--|Rembates pag.|--|5943|--|--|5943|0.05471219608094434|True|Kaibalas pamatskola|0|-1.0|-1.0|-1.0|-1.0|-1.0|-1.0
2244|"privātāvidusskola""norma"""|3713801984|Krievu|MADONAS IELA 2 - 22, RĪGA, LV-1084|2009|46|1|56.95964|24.16664|--|--|--|Rīga|--|--|687443|687443|0.006580045592547826|True|"Privātā vidusskola ""Norma"""|0|-1.0|-1.0|-1.0|-1.0|-1.0|-1.0
12837|talsusākumskola|4111900592|Latviešu|AKMEŅU IELA 8, TALSI, TALSU NOVADS, LV-3201|2009|184|1|57.24516|22.60434|Talsu nov.|Talsi|--|--|33161|10946|--|33161|0.0015538983235737103|True|Talsu sākumskola|0|-1.0|-1.0|-1.0|-1.0|-1.0|-1.0
8822|katvaruspeciālāinternātpamatskola|1420900181|Latviešu|KATVARI, KATVARU PAGASTS, LIMBAŽU NOVADS, LV-4061|2009|122|1|57.55691|24.80211|Limbažu nov.|--|Katvaru pag.|--|18743|--|--|18743|0.002242231031807836|True|Katvaru speciālā internātpamatskola|0|-1.0|-1.0|-1.0|-1.0|-1.0|-1.0
9042|krišjāņavaldemāraainažupamatskola|4312900160|Latviešu|PARKA IELA 12, AINAŽI, SALACGRĪVAS NOVADS, LV-4035|2009|144|1|57.86403|24.35451|Salacgrīvas nov.|Ainaži|--|--|8940|934|--|8940|0.09741066522716754|True|Krišjāņa Valdemāra Ainažu pamatskola|0|-1.0|-1.0|-1.0|-1.0|-1.0|-1.0
9064|kuldīgas2vidusskola|4113901191|Latviešu|JELGAVAS IELA 62, KULDĪGA, KULDĪGAS NOVADS, LV-3301|2009|492|1|56.9628|21.98368|Kuldīgas nov.|Kuldīga|--|--|26065|12286|--|26065|0.018770681926876035|True|Kuldīgas 2. vidusskola|0|-1.0|-1.0|-1.0|-1.0|-1.0|-1.0
1936|mežciemapamatskola|3712900760|Latviešu|HIPOKRĀTA IELA 29, RĪGA, LV-1079|2009|572|1|56.96198|24.23705|--|--|--|Rīga|--|--|687443|687443|0.0009002777349250618|True|Mežciema pamatskola|0|-1.0|-1.0|-1.0|-1.0|-1.0|-1.0
9075|kuldīgasalternatīvāsākumskola|4111901199|Latviešu|PILTENES IELA 25, KULDĪGA, KULDĪGAS NOVADS, LV-3301|2009|265|1|56.97442|21.95843|Kuldīgas nov.|Kuldīga|--|--|26065|12286|--|26065|0.007484129875942124|True|Kuldīgas Alternatīvā sākumskola|0|-1.0|-1.0|-1.0|-1.0|-1.0|-1.0
9086|kuldīgascentravidusskola|4113901192|Latviešu|MUCENIEKU IELA 6, KULDĪGA, KULDĪGAS NOVADS, LV-3301|2009|734|1|56.96636|21.96525|Kuldīgas nov.|Kuldīga|--|--|26065|12286|--|26065|0.002312509459440412|True|Kuldīgas Centra vidusskola|0|-1.0|-1.0|-1.0|-1.0|-1.0|-1.0
9108|kuldīgasmākslasunhumanitārozinībuvidusskola|4113901189|Latviešu|PĒTERA IELA 5, KULDĪGA, KULDĪGAS NOVADS, LV-3301|2009|253|1|56.97091|21.96504|Kuldīgas nov.|Kuldīga|--|--|26065|12286|--|26065|0.0020002499843744226|True|Kuldīgas Mākslas un humanitāro zinību vidusskola|0|-1.0|-1.0|-1.0|-1.0|-1.0|-1.0
1914|kārļavideniekarīgas77vidusskola|3613900668|Latviešu|AVOTU IELA 44, RĪGA, LV-1009|2009|453|1|56.95161|24.13772|--|--|--|Rīga|--|--|687443|687443|0.0025830602006144654|True|Kārļa Videnieka Rīgas 77. vidusskola|0|-1.0|-1.0|-1.0|-1.0|-1.0|-1.0
9119|kuldīgaspamatskola|4112901848|Latviešu|VENTSPILS IELA 16, KULDĪGA, KULDĪGAS NOVADS, LV-3301|2009|368|1|56.97278|21.96575|Kuldīgas nov.|Kuldīga|--|--|26065|12286|--|26065|0.0020002499843744226|True|Kuldīgas pamatskola|0|-1.0|-1.0|-1.0|-1.0|-1.0|-1.0
9130|kurmenespamatskola|112900986|Latviešu|KURMENE, KURMENES PAGASTS, VECUMNIEKU NOVADS, LV-5115|2009|50|1|56.4167|24.82997|Vecumnieku nov.|--|Kurmenes pag.|--|9260|--|--|9260|0.14730844985947072|True|Kurmenes pamatskola|0|-1.0|-1.0|-1.0|-1.0|-1.0|-1.0
9141|kusaspamatskola|4412900120|Latviešu|SKOLAS IELA 3, KUSA, ARONAS PAGASTS, MADONAS NOVADS, LV-4847|2009|121|1|56.89785|26.12875|Madonas nov.|--|Aronas pag.|--|26712|--|--|26712|0.095290680026955|True|Kusas pamatskola|0|-1.0|-1.0|-1.0|-1.0|-1.0|-1.0
9152|lāčupamatskola|4212900506|LK|MUZEJA IELA 2, LOCIKI, NAUJENES PAGASTS, DAUGAVPILS NOVADS, LV-5458|2009|148|1|55.94202|26.65046|Daugavpils nov.|--|Naujenes pag.|--|26747|--|--|26747|0.07588414458897305|True|Lāču pamatskola|0|-1.0|-1.0|-1.0|-1.0|-1.0|-1.0
9163|lādezerapamatskola|4312900167|Latviešu|LĀDEZERS, LIMBAŽU PAGASTS, LIMBAŽU NOVADS, LV-4011|2009|129|1|57.4252|24.69923|Limbažu nov.|--|Limbažu pag.|--|18743|--|--|18743|0.08183455016068134|True|Lādezera pamatskola|0|-1.0|-1.0|-1.0|-1.0|-1.0|-1.0
1881|"informācijassistēmumenedžmentaaugstskolasvidusskola""premjers"""|3613801080|Krievu|VISVALŽA IELA 6, RĪGA, LV-1050|2009|90|1|56.94775|24.12993|--|--|--|Rīga|--|--|687443|687443|0.0013843771162486578|True|"Informācijas sistēmu menedžmenta augstskolas vidusskola ""PREMJERS"""|0|-1.0|-1.0|-1.0|-1.0|-1.0|-1.0
9174|laidupamatskola|4112901184|Latviešu|LAIDI, LAIDU PAGASTS, KULDĪGAS NOVADS, LV-3317|2009|103|1|56.74689|21.8849|Kuldīgas nov.|--|Laidu pag.|--|26065|--|--|26065|0.10310163141289053|True|Laidu pamatskola|0|-1.0|-1.0|-1.0|-1.0|-1.0|-1.0
12804|talsukristīgāvidusskola|2213801678|Latviešu|JUSTĪNA GROTA IELA 1, TALSI, TALSU NOVADS, LV-3201|2009|154|1|57.24585|22.58693|Talsu nov.|Talsi|--|--|33161|10946|--|33161|0.0073139114022503764|True|Talsu Kristīgā vidusskola|0|-1.0|-1.0|-1.0|-1.0|-1.0|-1.0
9185|laidzespamatskola|2212900611|Latviešu|LAIDZE, LAIDZES PAGASTS, TALSU NOVADS, LV-3280|2009|90|1|57.30036|22.65042|Talsu nov.|--|Laidzes pag.|--|33161|--|--|33161|0.07190553803428432|True|Laidzes pamatskola|0|-1.0|-1.0|-1.0|-1.0|-1.0|-1.0
1870|iļģuciemavidusskola|3513900770|Latviešu|DZIRCIEMA IELA 109, RĪGA, LV-1055|2009|517|1|56.97115|24.05665|--|--|--|Rīga|--|--|687443|687443|0.007224133165990643|True|Iļģuciema vidusskola|0|-1.0|-1.0|-1.0|-1.0|-1.0|-1.0
13464|viļakaspamatskola|4212900074|LK|PILS IELA 11a, VIĻAKA, VIĻAKAS NOVADS, LV-4583|2009|126|1|57.18291|27.68683|Viļakas nov.|Viļaka|--|--|6105|1557|--|6105|0.06359383382058284|True|Viļakas pamatskola|0|-1.0|-1.0|-1.0|-1.0|-1.0|-1.0
9020|krimūnupamatskola|4512900876|Latviešu|KRIMŪNAS, KRIMŪNU PAGASTS, DOBELES NOVADS, LV-3719|2009|85|1|56.5727|23.38344|Dobeles nov.|--|Krimūnu pag.|--|23462|--|--|23462|0.007285835573219173|True|Krimūnu pamatskola|0|-1.0|-1.0|-1.0|-1.0|-1.0|-1.0
1969|natālijasdraudziņasģimnāzija|3413900791|Latviešu|BRUŅINIEKU IELA 24a, RĪGA, LV-1001|2009|562|1|56.95718|24.12937|--|--|--|Rīga|--|--|687443|687443|0.001008959860449905|True|Natālijas Draudziņas ģimnāzija|0|-1.0|-1.0|-1.0|-1.0|-1.0|-1.0
9009|krimuldasvidusskola|4313901119|Latviešu|SKOLAS IELA 11, RAGANA, KRIMULDAS PAGASTS, KRIMULDAS NOVADS, LV-2144|2009|396|1|57.18224|24.69773|Krimuldas nov.|--|Krimuldas pag.|--|5497|--|--|5497|0.059853458546688686|True|Krimuldas vidusskola|0|-1.0|-1.0|-1.0|-1.0|-1.0|-1.0
8833|kaunatasvidusskola|4213901076|LK|RĀZNAS IELA 17, KAUNATA, KAUNATAS PAGASTS, RĒZEKNES NOVADS, LV-4622|2009|303|1|56.49028|27.3465|Rēzeknes nov.|--|Kaunatas pag.|--|29737|--|--|29737|0.012576549606310421|True|Kaunatas vidusskola|0|-1.0|-1.0|-1.0|-1.0|-1.0|-1.0
8844|ķegumakomercnovirzienavidusskola|4313900201|Latviešu|SKOLAS IELA 10, ĶEGUMS, ĶEGUMA NOVADS, LV-5020|2009|459|1|56.74708|24.71406|Ķeguma nov.|Ķegums|--|--|5943|2369|--|5943|0.05485283675435773|True|Ķeguma komercnovirziena vidusskola|0|-1.0|-1.0|-1.0|-1.0|-1.0|-1.0
8855|ķeipenespamatskola|4312900196|Latviešu|ZIEDU IELA 3, ĶEIPENE, ĶEIPENES PAGASTS, OGRES NOVADS, LV-5062|2009|96|1|56.89072|25.18434|Ogres nov.|--|Ķeipenes pag.|--|37579|--|--|37579|0.05231122441694632|True|Ķeipenes pamatskola|0|-1.0|-1.0|-1.0|-1.0|-1.0|-1.0
8866|ķekavasvidusskola|4313901079|Latviešu|GAISMAS IELA 9, ĶEKAVA, ĶEKAVAS PAGASTS, ĶEKAVAS NOVADS, LV-2123|2009|787|1|56.82672|24.23032|Ķekavas nov.|--|Ķekavas pag.|--|20980|--|--|20980|0.00737794009192275|True|Ķekavas vidusskola|0|-1.0|-1.0|-1.0|-1.0|-1.0|-1.0
8877|kocēnupamatskola|4412900647|Latviešu|ALEJAS IELA 2, KOCĒNI, KOCĒNU PAGASTS, VALMIERAS NOVADS, LV-4220|2009|160|1|57.53253|25.38614|Kocēnu nov.|--|Kocēnu pag.|--|6652|--|--|6652|0.003587659404122001|True|Kocēnu pamatskola|0|-1.0|-1.0|-1.0|-1.0|-1.0|-1.0
13453|viesītesvidusskola|4513900262|Latviešu|VAĻŅU IELA 7, VIESĪTE, VIESĪTES NOVADS, LV-5237|2009|352|1|56.34567|25.55251|Viesītes nov.|Viesīte|--|--|4339|1869|--|4339|0.13345076432902603|True|Viesītes vidusskola|0|-1.0|-1.0|-1.0|-1.0|-1.0|-1.0
8910|koknesesspeciālāinternātpamatskola-attīstībascentrs|4520900991|Latviešu|BORMAŅI, KOKNESES PAGASTS, KOKNESES NOVADS, LV-5113|2009|91|1|56.67719|25.48688|Kokneses nov.|--|Kokneses pag.|--|5732|--|--|5732|0.0035445168923271854|True|Kokneses speciālā internātpamatskola - attīstības centrs|0|-1.0|-1.0|-1.0|-1.0|-1.0|-1.0
2024|pamatskolasklasespierīgasdomakoraskolas|3331301251|Latviešu|KALNCIEMA IELA 10/12, RĪGA, LV-1048|2009|182|1|56.94498|24.0778|--|--|--|Rīga|--|--|687443|687443|0.003387580257351694|True|Pamatskolas klases pie Rīgas Doma kora skolas|0|-1.0|-1.0|-1.0|-1.0|-1.0|-1.0
8921|kolkaspamatskola|4112900615|Latviešu|KOLKA, KOLKAS PAGASTS, DUNDAGAS NOVADS, LV-3275|2009|85|1|57.74474|22.58771|Dundagas nov.|--|Dundagas pag.|--|4567|--|--|4567|0.2773449101750397|True|Kolkas pamatskola|0|-1.0|-1.0|-1.0|-1.0|-1.0|-1.0
8932|konstantinovassākumskola|4211900554|Latviešu|SAULES IELA 15, KONSTANTINOVA, KONSTANTINOVAS PAGASTS, DAGDAS NOVADS, LV-5680|2009|30|1|56.05763|27.43648|Dagdas nov.|--|Konstantinovas pag.|--|8881|--|--|8881|0.0069027096128929195|True|Konstantinovas sākumskola|0|-1.0|-1.0|-1.0|-1.0|-1.0|-1.0
2013|pamatskolasklasespieemīladārziņamūzikasvidusskolas|3331301249|LK|Kalnciema 10/12, RĪGA, LV-1048|2009|241|1|56.94498|24.0778|--|--|--|Rīga|--|--|687443|687443|0.003387580257351694|True|pamatskolas klases pie Emīla Dārziņa mūzikas vidusskolas|0|-1.0|-1.0|-1.0|-1.0|-1.0|-1.0
12826|talsupamatskola|4112900593|Latviešu|GAISMAS IELA 1, TALSI, TALSU NOVADS, LV-3201|2009|288|1|57.25251|22.5838|Talsu nov.|Talsi|--|--|33161|10946|--|33161|0.0073588382235269265|True|Talsu pamatskola|0|-1.0|-1.0|-1.0|-1.0|-1.0|-1.0
8943|ķoņupamatskola|2512900638|Latviešu|ĶOŅU PAGASTS, NAUKŠĒNU NOVADS, LV-4247|2009|64|1|57.95072|25.35986|Naukšēnu nov.|--|Ķoņu pag.|--|2102|--|--|2102|0.06042412183887613|False|Ķoņu pamatskola|0|-1.0|-1.0|-1.0|-1.0|-1.0|-1.0
2002|"pamatskola""rīdze"""|3412900804|Latviešu|KRIŠJĀŅA VALDEMĀRA IELA 2, RĪGA, LV-1010|2009|398|1|56.95371|24.10716|--|--|--|Rīga|--|--|687443|687443|0.000794040301244711|True|"Pamatskola ""Rīdze"""|0|-1.0|-1.0|-1.0|-1.0|-1.0|-1.0
8954|krapespamatskola|4312900191|Latviešu|KRAPES PAGASTS, OGRES NOVADS, LV-5012|2009|55|1|56.74967|25.12795|Ogres nov.|--|Krapes pag.|--|37579|--|--|37579|0.10124625227631773|True|Krapes pamatskola|0|-1.0|-1.0|-1.0|-1.0|-1.0|-1.0
8965|krāslavasgrplāteruvnpoļupamatskola|1112900569|Poļu|RĒZEKNES IELA 39, KRĀSLAVA, KRĀSLAVAS NOVADS, LV-5601|2009|57|1|55.90074|27.17793|Krāslavas nov.|Krāslava|--|--|18757|9694|--|18757|0.007772322690162351|True|Krāslavas Gr. Plāteru v.n. Poļu pamatskola|0|-1.0|-1.0|-1.0|-1.0|-1.0|-1.0
1991|"pamatskola""harmonija"""|3712800299|Latviešu|BĒRZAUNES IELA 36, RĪGA, LV-1039|2009|22|1|56.96721|24.15852|--|--|--|Rīga|--|--|687443|687443|0.004317696144936866|True|"Pamatskola ""Harmonija"""|0|-1.0|-1.0|-1.0|-1.0|-1.0|-1.0
8976|krāslavaspamatskola|1112900553|Latviešu|PILS IELA 5, KRĀSLAVA, KRĀSLAVAS NOVADS, LV-5601|2009|402|1|55.90144|27.16069|Krāslavas nov.|Krāslava|--|--|18757|9694|--|18757|0.009483722897681285|True|Krāslavas pamatskola|0|-1.0|-1.0|-1.0|-1.0|-1.0|-1.0
8987|krāslavasvalstsģimnāzija|1119902694|Latviešu|RAIŅA IELA 25, KRĀSLAVA, KRĀSLAVAS NOVADS, LV-5601|2009|333|1|55.90093|27.17016|Krāslavas nov.|Krāslava|--|--|18757|9694|--|18757|0.007772322690162351|True|Krāslavas Valsts ģimnāzija|0|-1.0|-1.0|-1.0|-1.0|-1.0|-1.0
1980|okalpakarīgastautasdaiļamatupamatskola|3612900688|Latviešu|SKRINDU IELA 1, RĪGA, LV-1003|2009|443|1|56.94513|24.13153|--|--|--|Rīga|--|--|687443|687443|0.0025196229876720735|True|O.Kalpaka Rīgas Tautas daiļamatu pamatskola|0|-1.0|-1.0|-1.0|-1.0|-1.0|-1.0
8998|krāslavasvaravīksnesvidusskola|1113900576|LK|N. RANCĀNA IELA 4, KRĀSLAVA, KRĀSLAVAS NOVADS, LV-5601|2009|637|1|55.89279|27.17878|Krāslavas nov.|Krāslava|--|--|18757|9694|--|18757|0.007995311125904717|True|Krāslavas Varavīksnes vidusskola|0|-1.0|-1.0|-1.0|-1.0|-1.0|-1.0
8448|jaunsilavaspamatskola|1812900366|Latviešu|JAUNSILAVAS IELA 1, JAUNSILAVAS, TURKU PAGASTS, LĪVĀNU NOVADS, LV-5316|2009|108|1|56.39022|26.15929|Līvānu nov.|Līvāni|--|--|13373|8676|--|13373|0.032958021785295014|True|Jaunsilavas pamatskola|0|-1.0|-1.0|-1.0|-1.0|-1.0|-1.0
8437|jaunpilsvidusskola|4313900207|Latviešu|JAUNPILS, JAUNPILS PAGASTS, JAUNPILS NOVADS, LV-3145|2009|273|1|56.73261|23.00936|Jaunpils nov.|--|Jaunpils pag.|--|2591|--|--|2591|0.055083625516118416|True|Jaunpils vidusskola|0|-1.0|-1.0|-1.0|-1.0|-1.0|-1.0
8426|jaunpiebalgasvidusskola|4413900339|Latviešu|GAUJAS IELA 41, JAUNPIEBALGA, JAUNPIEBALGAS PAGASTS, JAUNPIEBALGAS NOVADS, LV-4125|2009|339|1|57.16737|26.01889|Jaunpiebalgas nov.|--|Jaunpiebalgas pag.|--|2576|--|--|2576|0.03926562873557818|True|Jaunpiebalgas vidusskola|0|-1.0|-1.0|-1.0|-1.0|-1.0|-1.0
2618|rīgas29vidusskola|3913900828|Krievu|LĒDURGAS IELA 26, RĪGA, LV-1034|2009|314|1|57.01762|24.13441|--|--|--|Rīga|--|--|687443|687443|0.015378244373136982|True|Rīgas 29. vidusskola|0|-1.0|-1.0|-1.0|-1.0|-1.0|-1.0
7865|garkalnes-berģupamatskola|4312902768|LK|VIDZEMES ŠOSEJA 34, GARKALNE, GARKALNES NOVADS, LV-2137|2009|295|1|57.04687|24.42386|Ādažu nov.|--|--|--|9588|--|--|9588|0.09015705851457376|False|Garkalnes-Berģu pamatskola|0|-1.0|-1.0|-1.0|-1.0|-1.0|-1.0
7876|garlībamerķeļalēdurgaspamatskola|4312900169|Latviešu|LĒDURGA, LĒDURGAS PAGASTS, KRIMULDAS NOVADS, LV-4012|2009|130|1|57.325|24.74094|Krimuldas nov.|--|Lēdurgas pag.|--|5497|--|--|5497|0.08312758868149306|True|Garlība Merķeļa Lēdurgas pamatskola|0|-1.0|-1.0|-1.0|-1.0|-1.0|-1.0
2607|rīgas28vidusskola|3913900823|Latviešu|SLIEŽU IELA 23, RĪGA, LV-1005|2009|386|1|57.00592|24.12443|--|--|--|Rīga|--|--|687443|687443|0.007135495778153879|True|Rīgas 28. vidusskola|0|-1.0|-1.0|-1.0|-1.0|-1.0|-1.0
7887|garozaspamatskola|4512900860|Latviešu|GAROZA, SIDRABENES PAGASTS, OZOLNIEKU NOVADS, LV-3045|2009|88|1|56.62702|23.94142|Ozolnieku nov.|--|Salgales pag.|--|9915|--|--|9915|0.05948833919349497|True|Garozas pamatskola|0|-1.0|-1.0|-1.0|-1.0|-1.0|-1.0
7898|gārsenespamatskola|4512900273|Latviešu|Labieši, GĀRSENES PAGASTS, AKNĪSTES NOVADS, LV-5218|2009|57|1|56.09946|25.80992|Aknīstes nov.|--|Gārsenes pag.|--|3109|--|--|3109|0.09554236128545417|True|Gārsenes pamatskola|0|-1.0|-1.0|-1.0|-1.0|-1.0|-1.0
2596|rīgas25vidusskola|3613900678|Latviešu|RUŠONU IELA 6, RĪGA, LV-1057|2009|864|1|56.91132|24.18246|Stopiņu nov.|--|--|Rīga|9608|--|687443|9608|0.003377839546223564|True|Rīgas 25. vidusskola|0|-1.0|-1.0|-1.0|-1.0|-1.0|-1.0
2585|rīgas24pamatskola|3412900785|Krievu|ALEKSANDRA ČAKA IELA 139, RĪGA, LV-1012|2009|360|1|56.9635|24.14921|--|--|--|Rīga|--|--|687443|687443|0.004519314107247458|True|Rīgas 24. pamatskola|0|-1.0|-1.0|-1.0|-1.0|-1.0|-1.0
7931|gaujienasspeciālāinternātpamatskola|4420900921|Latviešu|GAUJIENA, GAUJIENAS PAGASTS, APES NOVADS, LV-4339|2009|126|1|57.51826|26.40142|Apes nov.|--|Gaujienas pag.|--|4106|--|--|4106|0.007168626088728339|True|Gaujienas speciālā internātpamatskola|0|-1.0|-1.0|-1.0|-1.0|-1.0|-1.0
12925|tukuma2vidusskola|4313900224|Latviešu|RAUDAS IELA 16, TUKUMS, TUKUMA NOVADS, LV-3101|2009|836|1|56.97137|23.15726|Engures nov.|--|Smārdes pag.|--|7715|--|--|7715|0.003148539343889457|True|Tukuma 2. vidusskola|0|-1.0|-1.0|-1.0|-1.0|-1.0|-1.0
7942|gaviezespamatskola|4112901026|Latviešu|GAVIEZES PAGASTS, GROBIŅAS NOVADS, LV-3431|2009|70|1|56.47692|21.2985|Grobiņas nov.|--|Gaviezes pag.|--|9701|--|--|9701|0.09786837078443753|True|Gaviezes pamatskola|0|-1.0|-1.0|-1.0|-1.0|-1.0|-1.0
7953|gramzdaspamatskola|4112901016|Latviešu|SKOLAS IELA 4, GRAMZDA, GRAMZDAS PAGASTS, PRIEKULES NOVADS, LV-3486|2009|65|1|56.3665947|21.6030758|Priekules nov.|--|Gramzdas pag.|--|6236|--|--|6236|0.07574302619865571|True|Gramzdas pamatskola|0|-1.0|-1.0|-1.0|-1.0|-1.0|-1.0
2563|rīgas21vidusskola|3713900750|Krievu|TOMSONA IELA 35, RĪGA, LV-1013|2009|486|1|56.96743|24.12825|--|--|--|Rīga|--|--|687443|687443|0.0015684705926436158|True|Rīgas 21. vidusskola|0|-1.0|-1.0|-1.0|-1.0|-1.0|-1.0
7964|griķupamatskola|412901306|Latviešu|CERAUKSTE, CERAUKSTES PAGASTS, BAUSKAS NOVADS, LV-3908|2009|78|1|56.36034|24.2886|Bauskas nov.|--|Ceraukstes pag.|--|27161|--|--|27161|0.04948939381321703|True|Griķu pamatskola|0|-1.0|-1.0|-1.0|-1.0|-1.0|-1.0
12914|tukuma2pamatskola|4312902393|Latviešu|J. RAIŅA IELA 3A, TUKUMS, TUKUMA NOVADS, LV-3101|2009|540|1|56.96816|23.14722|Engures nov.|--|Smārdes pag.|--|7715|--|--|7715|0.0008820430828469894|True|Tukuma 2. pamatskola|0|-1.0|-1.0|-1.0|-1.0|-1.0|-1.0
7975|grobiņaspagastasākumskola|4111901002|Latviešu|OZOLU IELA 1, DUBEŅI, GROBIŅAS PAGASTS, GROBIŅAS NOVADS, LV-3438|2009|39|1|56.47564|21.20064|Grobiņas nov.|--|Grobiņas pag.|--|9701|--|--|9701|0.06854010504806737|True|Grobiņas pagasta sākumskola|0|-1.0|-1.0|-1.0|-1.0|-1.0|-1.0
2552|rīgas2speciālāinternātpamatskola|3620900692|LK|LUDZAS IELA 43, RĪGA, LV-1003|2009|132|1|56.94143|24.14572|--|--|--|Rīga|--|--|687443|687443|0.006523710600569317|True|Rīgas 2. speciālā internātpamatskola|0|-1.0|-1.0|-1.0|-1.0|-1.0|-1.0
7986|grundzālespamatskola|2412901221|Latviešu|TILTA IELA 6, GRUNDZĀLE, GRUNDZĀLES PAGASTS, SMILTENES NOVADS, LV-4713|2009|98|1|57.45663|26.26647|Smiltenes nov.|--|Grundzāles pag.|--|13718|--|--|13718|0.09250710513252221|True|Grundzāles pamatskola|0|-1.0|-1.0|-1.0|-1.0|-1.0|-1.0
7997|gulbenes2vidusskola|4413900966|Latviešu|LĪKĀ IELA 21, GULBENE, GULBENES NOVADS, LV-4401|2009|427|1|57.17512|26.75498|Gulbenes nov.|Gulbene|--|--|24310|8745|--|24310|0.0076568923199951495|True|Gulbenes 2. vidusskola|0|-1.0|-1.0|-1.0|-1.0|-1.0|-1.0
8008|gulbenesbērzusākumskola|4411900950|Latviešu|VIDUS IELA 7, GULBENE, GULBENES NOVADS, LV-4401|2009|207|1|57.1773|26.76232|Gulbenes nov.|Gulbene|--|--|24310|8745|--|24310|0.0076568923199951495|True|Gulbenes Bērzu sākumskola|0|-1.0|-1.0|-1.0|-1.0|-1.0|-1.0
8019|gulbenesnovadavalstsģimnāzija|4419902731|Latviešu|SKOLAS IELA 10, GULBENE, GULBENES NOVADS, LV-4401|2009|354|1|57.17153|26.7674|Gulbenes nov.|Gulbene|--|--|24310|8745|--|24310|0.0015231546211737102|True|Gulbenes novada valsts ģimnāzija|1|-1.0|-1.0|-1.0|-1.0|-1.0|-1.0
2530|rīgas19vidusskola|3513900771|Latviešu|MIGLAS IELA 9, RĪGA, LV-1016|2009|380|1|57.03625|24.0461|--|--|--|Rīga|--|--|687443|687443|0.006555676929195792|True|Rīgas 19. vidusskola|0|-1.0|-1.0|-1.0|-1.0|-1.0|-1.0
2574|rīgas22vidusskola|3413900799|Krievu|BRUŅINIEKU IELA 10, RĪGA, LV-1001|2009|617|1|56.95851|24.12676|--|--|--|Rīga|--|--|687443|687443|0.0021572436116452137|True|Rīgas 22. vidusskola|0|-1.0|-1.0|-1.0|-1.0|-1.0|-1.0
2629|rīgas3speciālāpamatskola|3820900729|LK|TELTS IELA 1a, RĪGA, LV-1004|2009|132|1|56.91934|24.0898|--|--|--|Rīga|--|--|687443|687443|0.007772779425660396|True|Rīgas 3. speciālā pamatskola|0|-1.0|-1.0|-1.0|-1.0|-1.0|-1.0
7656|enguresvidusskola|4313900228|Latviešu|SKOLAS IELA 7, ENGURE, ENGURES PAGASTS, ENGURES NOVADS, LV-3113|2009|324|1|57.16275|23.22229|Engures nov.|--|Engures pag.|--|7715|--|--|7715|0.14915233052152188|True|Engures vidusskola|0|-1.0|-1.0|-1.0|-1.0|-1.0|-1.0
7667|ērģemespamatskola|4412901220|Latviešu|ĒRĢEME, ĒRĢEMES PAGASTS, VALKAS NOVADS, LV-4711|2009|63|1|57.82509|25.80852|Valkas nov.|--|Ērģemes pag.|--|9921|--|--|9921|0.1835737532982317|True|Ērģemes pamatskola|0|-1.0|-1.0|-1.0|-1.0|-1.0|-1.0
2728|rīgas41vidusskola|3513900768|Latviešu|SLOKAS IELA 49a, RĪGA, LV-1007|2009|440|1|56.95352|24.06169|--|--|--|Rīga|--|--|687443|687443|0.006922752342817608|True|Rīgas 41. vidusskola|0|-1.0|-1.0|-1.0|-1.0|-1.0|-1.0
7678|ērgļuvidusskola|4413900131|Latviešu|OŠKALNA IELA 6, ĒRGĻI, ĒRGĻU PAGASTS, ĒRGĻU NOVADS, LV-4840|2009|290|1|56.90213|25.64576|Ērgļu nov.|--|Ērgļu pag.|--|3443|--|--|3443|0.11817915975331782|True|Ērgļu vidusskola|0|-1.0|-1.0|-1.0|-1.0|-1.0|-1.0
7689|ernstaglikaalūksnesvalstsģimnāzija|4419900900|Latviešu|GLIKA IELA 10, ALŪKSNE, ALŪKSNES NOVADS, LV-4301|2009|514|1|57.4236868|27.038828|Alūksnes nov.|Alūksne|--|--|18258|8506|--|18258|0.00505605204087184|True|Ernsta Glika Alūksnes Valsts ģimnāzija|0|-1.0|-1.0|-1.0|-1.0|-1.0|-1.0
2717|rīgas40vidusskola|3413900797|Krievu|TĒRBATAS IELA 15/17, RĪGA, LV-1011|2009|958|1|56.95428|24.12192|--|--|--|Rīga|--|--|687443|687443|0.002085689334487622|True|Rīgas 40. vidusskola|4|-1.0|-1.0|-1.0|-1.0|-1.0|-1.0
7700|ēvelespamatskola|4412901320|Latviešu|ĒVELE, ĒVELES PAGASTS, BURTNIEKU NOVADS, LV-4712|2009|71|1|57.69047|25.54733|Burtnieku nov.|--|Ēveles pag.|--|8712|--|--|8712|0.12186359013257383|True|Ēveles pamatskola|0|-1.0|-1.0|-1.0|-1.0|-1.0|-1.0
2706|rīgas4speciālāinternātpamatskola|3720900834|LK|TIRZAS IELA 2, RĪGA, LV-1024|2009|143|1|56.98825|24.22326|Garkalnes nov.|--|--|Rīga|7030|--|687443|7030|0.009677256842722649|True|Rīgas 4. speciālā internātpamatskola|0|-1.0|-1.0|-1.0|-1.0|-1.0|-1.0
7711|ezerniekuvidusskola|4213900572|Latviešu|EZERNIEKI, EZERNIEKU PAGASTS, DAGDAS NOVADS, LV-5692|2009|178|1|56.18869|27.65974|Dagdas nov.|--|Ezernieku pag.|--|8881|--|--|8881|0.10929855671508153|True|Ezernieku vidusskola|0|-1.0|-1.0|-1.0|-1.0|-1.0|-1.0
7722|feimaņupamatskola|4212901145|LK|FEIMAŅI, FEIMAŅU PAGASTS, RĒZEKNES NOVADS, LV-4623|2009|109|1|56.27434|27.04496|Rēzeknes nov.|--|Feimaņu pag.|--|29737|--|--|29737|0.12156845808021301|True|Feimaņu pamatskola|0|-1.0|-1.0|-1.0|-1.0|-1.0|-1.0
7733|fričabārdaspociemapamatskola|4312900172|Latviešu|POCIEMS, KATVARU PAGASTS, LIMBAŽU NOVADS, LV-4061|2009|61|1|57.59898|24.85455|Limbažu nov.|--|Katvaru pag.|--|18743|--|--|18743|0.06593087668156435|True|Friča Bārdas Pociema pamatskola|0|-1.0|-1.0|-1.0|-1.0|-1.0|-1.0
7744|gaigalavaspamatskola|4212902240|Latviešu|GAIGALAVA, GAIGALAVAS PAGASTS, RĒZEKNES NOVADS, LV-4618|2009|168|1|56.7339|27.067|Rēzeknes nov.|--|Gaigalavas pag.|--|29737|--|--|29737|0.11502463909963398|True|Gaigalavas pamatskola|0|-1.0|-1.0|-1.0|-1.0|-1.0|-1.0
2684|rīgas37vidusskola|3913900822|Krievu|ČIEKURKALNA 1. LĪNIJA 53, RĪGA, LV-1026|2009|253|1|56.9829|24.17637|--|--|--|Rīga|--|--|687443|687443|0.004014237162897867|True|Rīgas 37. vidusskola|0|-1.0|-1.0|-1.0|-1.0|-1.0|-1.0
2673|rīgas34vidusskola|3513900765|Krievu|KANDAVAS IELA 4, RĪGA, LV-1083|2009|907|1|56.9507|24.0534|--|--|--|Rīga|--|--|687443|687443|0.004176338108917482|True|Rīgas 34. vidusskola|0|-1.0|-1.0|-1.0|-1.0|-1.0|-1.0
7788|gaismasspeciālāinternātpamatskola|4320901127|Latviešu|RUMBULA, STOPIŅU NOVADS, LV-2121|2009|85|1|56.89315|24.21942|Salaspils nov.|Salaspils|--|--|22521|17576|--|22521|0.015046145685854993|True|Gaismas speciālā internātpamatskola|0|-1.0|-1.0|-1.0|-1.0|-1.0|-1.0
2662|rīgas33vidusskola|3513900836|Krievu|STŪRMAŅU IELA 23, RĪGA, LV-1016|2009|785|1|57.0339|24.05222|--|--|--|Rīga|--|--|687443|687443|0.006555676929195792|True|Rīgas 33. vidusskola|0|-1.0|-1.0|-1.0|-1.0|-1.0|-1.0
7799|galēnupamatskola|1812900364|Latviešu|SKOLAS IELA 11, GALĒNI, GALĒNU PAGASTS, RIEBIŅU NOVADS, LV-5311|2009|84|1|56.47445|26.84509|Riebiņu nov.|--|Galēnu pag.|--|5968|--|--|5968|0.08151714052884636|True|Galēnu pamatskola|0|-1.0|-1.0|-1.0|-1.0|-1.0|-1.0
7810|galgauskaspamatskola|4412900947|Latviešu|GALGAUSKA, GALGAUSKAS PAGASTS, GULBENES NOVADS, LV-4428|2009|102|1|57.14005|26.55375|Gulbenes nov.|--|Galgauskas pag.|--|24310|--|--|24310|0.07189499287154992|True|Galgauskas pamatskola|0|-1.0|-1.0|-1.0|-1.0|-1.0|-1.0
2651|rīgas32vidusskola|3613900662|Krievu|VIĻĀNU IELA 13, RĪGA, LV-1003|2009|371|1|56.94165|24.15224|--|--|--|Rīga|--|--|687443|687443|0.006523710600569317|True|Rīgas 32. vidusskola|0|-1.0|-1.0|-1.0|-1.0|-1.0|-1.0
7821|gardenespamatskola|4512900874|Latviešu|PRIEŽU IELA 21, GARDENE, AURU PAGASTS, DOBELES NOVADS, LV-3701|2009|152|1|56.64946|23.22404|Dobeles nov.|Dobele|--|--|23462|10899|--|23462|0.05826027205566479|True|Gardenes pamatskola|0|-1.0|-1.0|-1.0|-1.0|-1.0|-1.0
2640|rīgas31vidusskola|3913900826|Latviešu|SKUJU IELA 11, RĪGA, LV-1015|2009|619|1|57.03192|24.10284|--|--|--|Rīga|--|--|687443|687443|0.009285370213403778|True|Rīgas 31. vidusskola|0|-1.0|-1.0|-1.0|-1.0|-1.0|-1.0
13398|veselavaspamatskola|4412900313|Latviešu|VESELAVA, VESELAVAS PAGASTS, PRIEKUĻU NOVADS, LV-4116|2009|85|1|57.28895|25.47907|Priekuļu nov.|--|Priekuļu pag.|--|8936|--|--|8936|0.05914780215697224|False|Veselavas pamatskola|0|-1.0|-1.0|-1.0|-1.0|-1.0|-1.0
9196|lapmežciemapamatskola|4312900208|Latviešu|LIEPU IELA 2a, LAPMEŽCIEMS, LAPMEŽCIEMA PAGASTS, ENGURES NOVADS, LV-3118|2009|129|1|57.00043|23.51403|Engures nov.|--|Lapmežciema pag.|--|7715|--|--|7715|0.06403519344860516|True|Lapmežciema pamatskola|0|-1.0|-1.0|-1.0|-1.0|-1.0|-1.0
13409|vestienaspamatskola|4412900106|Latviešu|Vestienas muiža, VESTIENAS PAGASTS, MADONAS NOVADS, LV-4855|2009|84|1|56.8665|25.87414|Madonas nov.|--|Bērzaunes pag.|--|26712|--|--|26712|0.1577728519105831|True|Vestienas pamatskola|0|-1.0|-1.0|-1.0|-1.0|-1.0|-1.0
2398|rīgas1speciālāinternātpamatskola|3420900802|Latviešu|ĢERTRŪDES IELA 18, RĪGA, LV-1011|2009|161|1|56.95653|24.12388|--|--|--|Rīga|--|--|687443|687443|0.001593549497194267|True|Rīgas 1. speciālā internātpamatskola|0|-1.0|-1.0|-1.0|-1.0|-1.0|-1.0
13420|vidrižupamatskola|4312900176|Latviešu|VIDRIŽI, VIDRIŽU PAGASTS, LIMBAŽU NOVADS, LV-4013|2009|114|1|57.34694|24.66076|Limbažu nov.|--|Skultes pag.|--|18743|--|--|18743|0.08312758868149306|True|Vidrižu pamatskola|0|-1.0|-1.0|-1.0|-1.0|-1.0|-1.0
8261|īslīcesvidusskola|413901288|Latviešu|SKOLAS IELA 1, BĒRZI, ĪSLĪCES PAGASTS, BAUSKAS NOVADS, LV-3901|2009|317|1|56.34518|24.112|Bauskas nov.|Bauska|--|--|27161|10025|--|27161|0.0024328172968811844|True|Īslīces vidusskola|0|-1.0|-1.0|-1.0|-1.0|-1.0|-1.0
8272|istrasvidusskola|4213900474|Krievu|VECSLABADA, ISTRAS PAGASTS, LUDZAS NOVADS, LV-5748|2009|115|1|56.26385|27.98636|Ludzas nov.|--|Istras pag.|--|15121|--|--|15121|0.12638986549561418|True|Istras vidusskola|0|-1.0|-1.0|-1.0|-1.0|-1.0|-1.0
8283|izvaltaspamatskola|1112900563|Latviešu|SAULES IELA 1, IZVALTA, IZVALTAS PAGASTS, KRĀSLAVAS NOVADS, LV-5652|2009|83|1|55.95733|27.02457|Krāslavas nov.|--|Izvaltas pag.|--|18757|--|--|18757|0.0695293700532408|True|Izvaltas pamatskola|0|-1.0|-1.0|-1.0|-1.0|-1.0|-1.0
8294|jendzelīnakaugurupamatskola|4412900640|Latviešu|KAUGURI, KAUGURU PAGASTS, BEVERĪNAS NOVADS, LV-4224|2009|127|1|57.4928|25.4474|Beverīnas nov.|--|Brenguļu pag.|--|3434|--|--|3434|0.032563157095095906|True|J. Endzelīna Kauguru pamatskola|0|-1.0|-1.0|-1.0|-1.0|-1.0|-1.0
8316|jāņazālīšasausnējaspamatskola|4412900109|Latviešu|Rīti, SAUSNĒJA, SAUSNĒJAS PAGASTS, ĒRGĻU NOVADS, LV-4841|2009|71|1|56.7996|25.70453|Ērgļu nov.|--|Sausnējas pag.|--|3443|--|--|3443|0.10982823407484699|True|Jāņa Zālīša Sausnējas pamatskola|0|-1.0|-1.0|-1.0|-1.0|-1.0|-1.0
8250|irlavasvidusskola|4313900229|Latviešu|IRLAVAS PAGASTS, TUKUMA NOVADS, LV-3137|2009|237|1|56.87564|22.99395|Tukuma nov.|--|Irlavas pag.|--|31713|--|--|31713|0.0603411965409999|True|Irlavas vidusskola|0|-1.0|-1.0|-1.0|-1.0|-1.0|-1.0
8349|jaunburtniekusākumskola|4411902792|Latviešu|BĒRZAINES PAGASTS, VALMIERAS NOVADS, LV-4208|2009|52|1|57.59573|25.21274|Kocēnu nov.|--|Bērzaines pag.|--|6652|--|--|6652|0.11634704293620629|False|Jaunburtnieku sākumskola|0|-1.0|-1.0|-1.0|-1.0|-1.0|-1.0
2343|puškinalicejs|3913900821|Krievu|SARKANDAUGAVAS IELA 22, RĪGA, LV-1005|2009|788|1|56.99879|24.12471|--|--|--|Rīga|--|--|687443|687443|0.007135495778153879|True|Puškina licejs|0|-1.0|-1.0|-1.0|-1.0|-1.0|-1.0
8360|jaunjelgavasvidusskola|113901040|Latviešu|UZVARAS IELA 1, JAUNJELGAVA, JAUNJELGAVAS NOVADS, LV-5134|2009|257|1|56.61115|25.08262|Jaunjelgavas nov.|Jaunjelgava|--|--|6057|2116|--|6057|0.05256641988950599|True|Jaunjelgavas vidusskola|1|-1.0|-1.0|-1.0|-1.0|-1.0|-1.0
8371|jaunlaicenespamatskola|4412900918|Latviešu|JAUNLAICENE, JAUNLAICENES PAGASTS, ALŪKSNES NOVADS, LV-4336|2009|64|1|57.52745|26.87308|Alūksnes nov.|--|Jaunlaicenes pag.|--|18258|--|--|18258|0.0027241512439661695|True|Jaunlaicenes pamatskola|0|-1.0|-1.0|-1.0|-1.0|-1.0|-1.0
2321|privātskola„innova”|3613802628|Krievu|MŪRNIEKU IELA 7, RĪGA, LV-1009|2009|52|1|56.95274|24.14577|--|--|--|Rīga|--|--|687443|687443|0.0054551443610607485|True|Privātskola „Innova”|0|-1.0|-1.0|-1.0|-1.0|-1.0|-1.0
8404|jaunmārupessākumskola|4311902576|Latviešu|MAZCENU ALEJA 4a, JAUNMĀRUPE, MĀRUPES NOVADS, LV-2166|2009|172|1|56.87957|23.94897|Mārupes nov.|--|--|--|14656|--|--|14656|0.04048518864967334|True|Jaunmārupes sākumskola|0|-1.0|-1.0|-1.0|-1.0|-1.0|-1.0
8415|jaunmuižaspamatskola|4112901203|Latviešu|SKRUNDAS LAUKU TERITORIJA, SKRUNDAS NOVADS, LV-3307|2009|29|1|56.82226|24.02555|Saldus nov.|--|Pampāļu pag.|--|27309|--|--|27309|0.06931798612192912|True|Jaunmuižas pamatskola|0|-1.0|-1.0|-1.0|-1.0|-1.0|-1.0
2310|"privātskola""latreia"""|3513800288|Krievu|KULDĪGAS IELA 45, RĪGA, LV-1083|2009|113|1|56.94588|24.05479|--|--|--|Rīga|--|--|687443|687443|0.00281780056072245|True|"Privātskola ""Latreia"""|0|-1.0|-1.0|-1.0|-1.0|-1.0|-1.0
12881|tiskādusanatorijasinternātpamatskola|4223901170|Krievu|PARKA IELA 4, VECRUŽINA, SILMALAS PAGASTS, RĒZEKNES NOVADS, LV-4636|2009|151|1|56.44038|27.08586|Rēzeknes nov.|--|Silmalas pag.|--|29737|--|--|29737|0.002915475947425531|True|Tiskādu sanatorijas internātpamatskola|0|-1.0|-1.0|-1.0|-1.0|-1.0|-1.0
8228|inešupamatskola|4412901151|Latviešu|Zemnieki, INEŠI, INEŠU PAGASTS, VECPIEBALGAS NOVADS, LV-4123|2009|56|1|57.02108|25.84256|Vecpiebalgas nov.|--|Inešu pag.|--|4476|--|--|4476|0.05178790354870714|True|Inešu pamatskola|0|-1.0|-1.0|-1.0|-1.0|-1.0|-1.0
8052|gulbenesvidusskola|4413900967|Latviešu|SKOLAS IELA 12, GULBENE, GULBENES NOVADS, LV-4401|2009|375|1|57.17117|26.76888|Gulbenes nov.|Gulbene|--|--|24310|8745|--|24310|0.0015231546211737102|True|Gulbenes vidusskola|0|-1.0|-1.0|-1.0|-1.0|-1.0|-1.0
8074|gulbīšavidusskola|4413900965|Latviešu|ĀBEĻU IELA Gulbītis, JAUNGULBENE, JAUNGULBENES PAGASTS, GULBENES NOVADS, LV-4420|2009|169|1|57.06605|26.5983|Gulbenes nov.|--|Jaungulbenes pag.|--|24310|--|--|24310|0.03949791386896412|True|Gulbīša vidusskola|0|-1.0|-1.0|-1.0|-1.0|-1.0|-1.0
2497|rīgas16vidusskola|3713900739|Krievu|PĀLES IELA 9, RĪGA, LV-1024|2009|410|1|56.98567|24.24539|Garkalnes nov.|--|--|Rīga|7030|--|687443|7030|0.004815651565466163|False|Rīgas 16. vidusskola|0|-1.0|-1.0|-1.0|-1.0|-1.0|-1.0
8085|iecavasinternātpamatskola|4512901297|Latviešu|SKOLAS IELA 19, IECAVA, IECAVAS NOVADS, LV-3913|2009|270|1|56.59827|24.20625|Bauskas nov.|--|Dāviņu pag.|--|27161|--|--|27161|0.007378238272105578|True|Iecavas internātpamatskola|0|-1.0|-1.0|-1.0|-1.0|-1.0|-1.0
12903|tiskāduvidusskola|4213901149|Krievu|PARKA IELA 4, VECRUŽINA, SILMALAS PAGASTS, RĒZEKNES NOVADS, LV-4636|2009|266|1|56.44038|27.08586|Rēzeknes nov.|--|Silmalas pag.|--|29737|--|--|29737|0.002915475947425531|True|Tiskādu vidusskola|0|-1.0|-1.0|-1.0|-1.0|-1.0|-1.0
2486|rīgas15vidusskola|3613900677|Krievu|VISVALŽA IELA 9, RĪGA, LV-1050|2009|427|1|56.94764|24.13131|--|--|--|Rīga|--|--|687443|687443|0.0013843771162486578|True|Rīgas 15. vidusskola|0|-1.0|-1.0|-1.0|-1.0|-1.0|-1.0
8107|iecavasvidusskola|413901291|LK|SKOLAS IELA 37, IECAVA, IECAVAS NOVADS, LV-3913|2009|767|1|56.59947|24.21353|Bauskas nov.|--|Dāviņu pag.|--|27161|--|--|27161|0.007378238272105578|True|Iecavas vidusskola|0|-1.0|-1.0|-1.0|-1.0|-1.0|-1.0
8118|ikšķilesvidusskola|4313900190|Latviešu|SKOLAS IELA 2, IKŠĶILE, IKŠĶILES NOVADS, LV-5052|2009|618|1|56.8359|24.494|Ikšķiles nov.|Ikšķile|--|--|8375|3858|--|8375|0.010303261619509766|True|Ikšķiles vidusskola|0|-1.0|-1.0|-1.0|-1.0|-1.0|-1.0
8129|ilmāragaišakoknesesvidusskola|4513901334|Latviešu|PARKA IELA 27, KOKNESE, KOKNESES PAGASTS, KOKNESES NOVADS, LV-5113|2009|488|1|56.64453|25.42455|Kokneses nov.|--|Kokneses pag.|--|5732|--|--|5732|0.06701775063369429|True|Ilmāra Gaiša Kokneses vidusskola|0|-1.0|-1.0|-1.0|-1.0|-1.0|-1.0
8140|ilūkstes1vidusskola|4213900513|Latviešu|RAIŅA IELA 49, ILŪKSTE, ILŪKSTES NOVADS, LV-5447|2009|463|1|55.98314|26.28778|Ilūkstes nov.|Ilūkste|--|--|8608|2678|--|8608|0.005492549499091526|True|Ilūkstes 1. vidusskola|0|-1.0|-1.0|-1.0|-1.0|-1.0|-1.0
8151|ilūkstes2vidusskola|4213901046|LK|STADIONA IELA 1, ILŪKSTE, ILŪKSTES NOVADS, LV-5447|2009|182|1|55.97809|26.28994|Ilūkstes nov.|Ilūkste|--|--|8608|2678|--|8608|0.005492549499091526|False|Ilūkstes 2. vidusskola|0|-1.0|-1.0|-1.0|-1.0|-1.0|-1.0
2453|rīgas13vidusskola|3913900817|Krievu|PULKVEŽA BRIEŽA IELA 25, RĪGA, LV-1010|2009|508|1|56.9624|24.10544|--|--|--|Rīga|--|--|687443|687443|0.0021709214633403866|True|Rīgas 13. vidusskola|1|-1.0|-1.0|-1.0|-1.0|-1.0|-1.0
2442|rīgas100vidusskola|3713900745|Latviešu|LAIMDOTAS IELA 42, RĪGA, LV-1084|2009|309|1|56.9662041|24.185602|--|--|--|Rīga|--|--|687443|687443|0.004138621849119274|False|Rīgas 100. vidusskola|0|-1.0|-1.0|-1.0|-1.0|-1.0|-1.0
8184|ilzenespamatskola|4412900905|Latviešu|Zinīši, JAUNZEMI, ILZENES PAGASTS, ALŪKSNES NOVADS, LV-4344|2009|73|1|57.37407|26.677|Alūksnes nov.|--|Ilzenes pag.|--|18258|--|--|18258|0.11473405989504566|True|Ilzenes pamatskola|0|-1.0|-1.0|-1.0|-1.0|-1.0|-1.0
8195|inčukalnapamatskola|4312901339|Latviešu|ZVAIGŽŅU IELA 2, INČUKALNS, INČUKALNA PAGASTS, INČUKALNA NOVADS, LV-2141|2009|221|1|57.10131|24.68203|Inčukalna nov.|--|Inčukalna pag.|--|8004|--|--|8004|0.036337264619121665|True|Inčukalna pamatskola|0|-1.0|-1.0|-1.0|-1.0|-1.0|-1.0
2431|rīgas10vidusskola|3913900824|Krievu|LENČU IELA 1, RĪGA, LV-1010|2009|854|1|56.96162|24.11091|--|--|--|Rīga|--|--|687443|687443|0.0019983242980089375|True|Rīgas 10. vidusskola|1|-1.0|-1.0|-1.0|-1.0|-1.0|-1.0
8217|indrasvidusskola|1113900574|LK|SKOLAS IELA 1, INDRA, INDRAS PAGASTS, KRĀSLAVAS NOVADS, LV-5664|2009|134|1|55.87805|27.54068|Krāslavas nov.|--|Indras pag.|--|18757|--|--|18757|0.11785535414227054|True|Indras vidusskola|0|-1.0|-1.0|-1.0|-1.0|-1.0|-1.0
9207|lauberespamatskola|4312900192|Latviešu|SKOLAS IELA 8, LAUBERE, LAUBERES PAGASTS, OGRES NOVADS, LV-5044|2009|68|1|56.85668|25.01684|Ogres nov.|--|Lauberes pag.|--|37579|--|--|37579|0.09236476492688908|True|Lauberes pamatskola|0|-1.0|-1.0|-1.0|-1.0|-1.0|-1.0
1859|humanitārāprivātģimnāzija|3613800690|Latviešu|KURBADA IELA 2, RĪGA, LV-1009|2009|78|1|56.94893|24.13688|--|--|--|Rīga|--|--|687443|687443|0.0028085583490516535|True|Humanitārā privātģimnāzija|0|-1.0|-1.0|-1.0|-1.0|-1.0|-1.0
10208|mežotnesinternātvidusskola|413901010|Latviešu|STRĒLNIEKI, MEŽOTNES PAGASTS, BAUSKAS NOVADS, LV-3926|2009|100|1|56.50188|24.08313|Bauskas nov.|--|Mežotnes pag.|--|27161|--|--|27161|0.0646060136519795|True|Mežotnes internātvidusskola|0|-1.0|-1.0|-1.0|-1.0|-1.0|-1.0
10219|mežotnespamatskola|4512901310|Latviešu|MEŽOTNE, MEŽOTNES PAGASTS, BAUSKAS NOVADS, LV-3918|2009|86|1|56.44235|24.05751|Bauskas nov.|--|Mežotnes pag.|--|27161|--|--|27161|0.0002751363298481272|True|Mežotnes pamatskola|0|-1.0|-1.0|-1.0|-1.0|-1.0|-1.0
1287|zaļeniekupamatskola|4512900844|Latviešu|Zaļenieku izglītības centrs, ZAĻENIEKI, ZAĻENIEKU PAGASTS, JELGAVAS NOVADS, LV-3011|2009|147|1|56.52665|23.50944|Jelgavas nov.|--|Zaļenieku pag.|--|25920|--|--|25920|0.0043832065887890945|True|Zaļenieku pamatskola|0|-1.0|-1.0|-1.0|-1.0|-1.0|-1.0
10241|milzkalnessākumskola|4311900252|Latviešu|MILZKALNE, SMĀRDES PAGASTS, ENGURES NOVADS, LV-3148|2009|66|1|56.97746|23.22553|Engures nov.|--|Smārdes pag.|--|7715|--|--|7715|0.06854108986585906|True|Milzkalnes sākumskola|0|-1.0|-1.0|-1.0|-1.0|-1.0|-1.0
10252|morespamatskola|2012900327|Latviešu|SIGULDAS IELA 15, MORE, MORES PAGASTS, SIGULDAS NOVADS, LV-2170|2009|100|1|57.08174|25.08198|Siguldas nov.|--|Mores pag.|--|16985|--|--|16985|0.10904132886204101|True|Mores pamatskola|0|-1.0|-1.0|-1.0|-1.0|-1.0|-1.0
10263|murjāņusportaģimnāzija|4316001068|Latviešu|KLINTSLEJU IELA 4, MURJĀŅI, SĒJAS NOVADS, LV-2142|2009|183|1|57.13283|24.66395|Krimuldas nov.|--|Krimuldas pag.|--|5497|--|--|5497|0.036337264619121665|True|Murjāņu sporta ģimnāzija|0|-1.0|-1.0|-1.0|-1.0|-1.0|-1.0
12705|sutrupamatskola|4212900357|Latviešu|SUTRI, SUTRU PAGASTS, LĪVĀNU NOVADS, LV-5334|2009|58|1|56.31148|26.52629|Līvānu nov.|--|Sutru pag.|--|13373|--|--|13373|0.07634422636978141|True|Sutru pamatskola|0|-1.0|-1.0|-1.0|-1.0|-1.0|-1.0
10274|murmastienespamatskola|4412900113|Latviešu|RĒZEKNES IELA 1, MURMASTIENE, MURMASTIENES PAGASTS, VARAKĻĀNU NOVADS, LV-4835|2009|76|1|56.66805|26.56645|Varakļānu nov.|--|Murmastienes pag.|--|3714|--|--|3714|0.0708426213518383|True|Murmastienes pamatskola|0|-1.0|-1.0|-1.0|-1.0|-1.0|-1.0
1254|virbupamatskola|4112900614|Latviešu|JAUNPAGASTS, VIRBU PAGASTS, TALSU NOVADS, LV-3292|2009|111|1|57.13079|22.64595|Talsu nov.|--|Virbu pag.|--|33161|--|--|33161|0.0039464848371652435|True|Virbu pamatskola|0|-1.0|-1.0|-1.0|-1.0|-1.0|-1.0
1298|zasasvidusskola|4513900263|Latviešu|ZASA, ZASAS PAGASTS, JĒKABPILS NOVADS, LV-5239|2009|163|1|56.2863|25.98704|Jēkabpils nov.|--|Zasas pag.|--|5497|--|--|5497|0.06562097378125509|True|Zasas vidusskola|0|-1.0|-1.0|-1.0|-1.0|-1.0|-1.0
10285|naudītespamatskola|4512900608|Latviešu|NAUDĪTE, NAUDĪTES PAGASTS, DOBELES NOVADS, LV-3724|2009|87|1|56.53545|23.19549|Dobeles nov.|--|Naudītes pag.|--|23462|--|--|23462|0.052047294838443475|True|Naudītes pamatskola|0|-1.0|-1.0|-1.0|-1.0|-1.0|-1.0
1243|vīpespamatskola|4512900286|Latviešu|VĪPES PAGASTS, KRUSTPILS NOVADS, LV-5238|2009|54|1|56.46695|26.08998|Krustpils nov.|--|Vīpes pag.|--|6392|--|--|6392|0.07666803571241804|True|Vīpes pamatskola|0|-1.0|-1.0|-1.0|-1.0|-1.0|-1.0
10318|naukšēnuvidusskola|2513900653|Latviešu|NAUKŠĒNU PAGASTS, NAUKŠĒNU NOVADS, LV-4244|2009|225|1|57.88498|25.46604|Naukšēnu nov.|--|Naukšēnu pag.|--|2102|--|--|2102|0.019097879463435632|False|Naukšēnu vidusskola|0|-1.0|-1.0|-1.0|-1.0|-1.0|-1.0
1232|vilpulkassākumskola|4411900652|Latviešu|VILPULKA, VILPULKAS PAGASTS, RŪJIENAS NOVADS, LV-4241|2009|20|1|57.95695|25.23799|Rūjienas nov.|--|Vilpulkas pag.|--|5925|--|--|5925|0.1180710468319803|True|Vilpulkas sākumskola|0|-1.0|-1.0|-1.0|-1.0|-1.0|-1.0
10329|nautrēnuvidusskola|4213901152|Latviešu|ROGOVKA, NAUTRĒNU PAGASTS, RĒZEKNES NOVADS, LV-4652|2009|322|1|56.71099|27.41687|Rēzeknes nov.|--|Nautrēnu pag.|--|29737|--|--|29737|0.14744042356151957|True|Nautrēnu vidusskola|0|-1.0|-1.0|-1.0|-1.0|-1.0|-1.0
10340|neretasjāņajaunsudrabiņavidusskola|4513900971|Latviešu|DZIRNAVU IELA 4, NERETA, NERETAS PAGASTS, NERETAS NOVADS, LV-5118|2009|246|1|56.20033|25.31166|Neretas nov.|--|Neretas pag.|--|4137|--|--|4137|0.15528622894513355|True|Neretas Jāņa Jaunsudrabiņa vidusskola|0|-1.0|-1.0|-1.0|-1.0|-1.0|-1.0
1221|vilcespamatskola|4512900843|Latviešu|VILCE, VILCES PAGASTS, JELGAVAS NOVADS, LV-3026|2009|108|1|56.42103|23.54584|Jelgavas nov.|--|Vilces pag.|--|25920|--|--|25920|0.111716356904433|True|Vilces pamatskola|0|-1.0|-1.0|-1.0|-1.0|-1.0|-1.0
10351|nīcasvidusskola|4113900998|Latviešu|SKOLAS IELA 14, NĪCA, NĪCAS PAGASTS, NĪCAS NOVADS, LV-3473|2009|297|1|56.34618|21.06891|Nīcas nov.|--|Nīcas pag.|--|3737|--|--|3737|0.03511831573410037|True|Nīcas vidusskola|0|-1.0|-1.0|-1.0|-1.0|-1.0|-1.0
10362|nīcgalespamatskola|4212900510|Latviešu|SKOLAS IELA 15, NĪCGALE, NĪCGALES PAGASTS, DAUGAVPILS NOVADS, LV-5463|2009|56|1|56.13564|26.3651|Daugavpils nov.|--|Nīcgales pag.|--|26747|--|--|26747|0.14457927825245312|True|Nīcgales pamatskola|0|-1.0|-1.0|-1.0|-1.0|-1.0|-1.0
1199|vijciemapamatskola|4412901210|Latviešu|DRUVAS, VIJCIEMS, VIJCIEMA PAGASTS, VALKAS NOVADS, LV-4733|2009|58|1|57.58592|25.95248|Valkas nov.|--|Vijciema pag.|--|9921|--|--|9921|0.09780861516247234|True|Vijciema pamatskola|0|-1.0|-1.0|-1.0|-1.0|-1.0|-1.0
10296|naujenespamatskola|4212900511|Latviešu|STACIJAS IELA 8, NAUJENE, NAUJENES PAGASTS, DAUGAVPILS NOVADS, LV-5462|2009|116|1|55.93601|26.75491|Daugavpils nov.|--|Naujenes pag.|--|26747|--|--|26747|0.07476877222477221|True|Naujenes pamatskola|0|-1.0|-1.0|-1.0|-1.0|-1.0|-1.0
10197|mežiniekupamatskola|4512900881|Latviešu|JAUNBĒRZES PAGASTS, DOBELES NOVADS, LV-3717|2009|135|1|56.73831|23.39203|Dobeles nov.|--|Jaunbērzes pag.|--|23462|--|--|23462|0.08982250775835711|True|Mežinieku pamatskola|0|-1.0|-1.0|-1.0|-1.0|-1.0|-1.0
13519|virgaspamatskola|4112901022|Latviešu|Gaismas, VIRGA, VIRGAS PAGASTS, PRIEKULES NOVADS, LV-3433|2009|75|1|56.47515|21.41513|Grobiņas nov.|--|Gaviezes pag.|--|9701|--|--|9701|0.11664343016218341|True|Virgas pamatskola|0|-1.0|-1.0|-1.0|-1.0|-1.0|-1.0
1309|zaubespamatskola|4412900316|Latviešu|Bērzaines, ZAUBE, ZAUBES PAGASTS, AMATAS NOVADS, LV-4113|2009|57|1|56.99908|25.26643|Amatas nov.|--|Zaubes pag.|--|6060|--|--|6060|0.10227218634604511|True|Zaubes pamatskola|0|-1.0|-1.0|-1.0|-1.0|-1.0|-1.0
10021|mazirbesspeciālāinternātpamatskola|4120901355|Latviešu|MAZIRBE, KOLKAS PAGASTS, DUNDAGAS NOVADS, LV-3275|2009|58|1|57.68108|22.31777|Dundagas nov.|--|Dundagas pag.|--|4567|--|--|4567|0.1765347116008673|True|Mazirbes speciālā internātpamatskola|0|-1.0|-1.0|-1.0|-1.0|-1.0|-1.0
1397|ventspils1ģimnāzija|3213900032|Latviešu|KULDĪGAS IELA 1, VENTSPILS, LV-3601|2009|408|1|57.39511|21.57188|Ventspils nov.|--|Ances pag.|Ventspils|12821|--|40676|12821|0.0018777113729256925|True|Ventspils 1. ģimnāzija|0|-1.0|-1.0|-1.0|-1.0|-1.0|-1.0
10032|mazozolupamatskola|4312900197|Latviešu|Jaunā skola, LĪČUPE, MAZOZOLU PAGASTS, OGRES NOVADS, LV-5065|2009|52|1|56.89632|25.42046|Ogres nov.|--|Mazozolu pag.|--|37579|--|--|37579|0.07966519503522042|True|Mazozolu pamatskola|0|-1.0|-1.0|-1.0|-1.0|-1.0|-1.0
10043|mazsalacasvidusskola|4413901013|Latviešu|PARKA IELA 31, MAZSALACA, MAZSALACAS NOVADS, LV-4215|2009|387|1|57.8615132|25.0364973|Mazsalacas nov.|Mazsalaca|--|--|3750|1378|--|3750|0.09247334091255904|True|Mazsalacas vidusskola|0|-1.0|-1.0|-1.0|-1.0|-1.0|-1.0
1386|dienasapmācībasklasespieventspilsvakaravidusskolas|3214900038|LK|SAULES IELA 37, VENTSPILS, LV-3601|2009|92|1|57.38806|21.55836|Ventspils nov.|--|Ances pag.|Ventspils|12821|--|40676|12821|0.004938714407614018|True|Dienas apmācības klases pie Ventspils vakara vidusskolas|0|-1.0|-1.0|-1.0|-1.0|-1.0|-1.0
10054|mazzalvespamatskola|4512900978|Latviešu|SKOLAS IELA 1, ĒRBERĢE, MAZZALVES PAGASTS, NERETAS NOVADS, LV-5133|2009|128|1|56.36478|25.01728|Neretas nov.|--|Mazzalves pag.|--|4137|--|--|4137|0.18198894087279033|True|Mazzalves pamatskola|0|-1.0|-1.0|-1.0|-1.0|-1.0|-1.0
1375|zūrupamatskola|4112900046|Latviešu|SKOLAS IELA 10, VENTAVA, VĀRVES PAGASTS, VENTSPILS NOVADS, LV-3623|2009|146|1|57.22534|21.60702|Ventspils nov.|--|Vārves pag.|--|12821|--|--|12821|0.06795016556271195|True|Zūru pamatskola|0|-1.0|-1.0|-1.0|-1.0|-1.0|-1.0
10087|medumuspeciālāinternātpamatskola|4220900868|Krievu|ILGAS IELA 15, MEDUMI, MEDUMU PAGASTS, DAUGAVPILS NOVADS, LV-5460|2009|73|1|55.79046|26.35929|Daugavpils nov.|--|Medumu pag.|--|26747|--|--|26747|0.010599056561791574|True|Medumu speciālā internātpamatskola|0|-1.0|-1.0|-1.0|-1.0|-1.0|-1.0
1364|zlēkupamatskola|4112900544|Latviešu|ZLĒKAS, ZLĒKU PAGASTS, VENTSPILS NOVADS, LV-3617|2009|52|1|57.12344|21.82076|Ventspils nov.|--|Ziru pag.|--|12821|--|--|12821|0.09786013079901051|True|Zlēku pamatskola|0|-1.0|-1.0|-1.0|-1.0|-1.0|-1.0
10109|medumuvidusskola|4213900389|Latviešu|ALEJAS IELA 20, MEDUMI, MEDUMU PAGASTS, DAUGAVPILS NOVADS, LV-5460|2009|110|1|55.78372|26.35111|Daugavpils nov.|--|Medumu pag.|--|26747|--|--|26747|0.010599056561791574|True|Medumu vidusskola|0|-1.0|-1.0|-1.0|-1.0|-1.0|-1.0
1353|ziemerupamatskola|4412900914|Latviešu|MĀRIŅKALNS, ZIEMERU PAGASTS, ALŪKSNES NOVADS, LV-4332|2009|118|1|57.48815|26.97841|Alūksnes nov.|--|Ziemera pag.|--|18258|--|--|18258|0.08835065861802988|True|Ziemeru pamatskola|0|-1.0|-1.0|-1.0|-1.0|-1.0|-1.0
10120|meirānukalpakapamatskola|1612900115|Latviešu|INDRĀNI, INDRĀNU PAGASTS, LUBĀNAS NOVADS, LV-4826|2009|60|1|56.93306|26.63732|Lubānas nov.|--|Indrānu pag.|--|2669|--|--|2669|0.08613199637765045|True|Meirānu Kalpaka pamatskola|0|-1.0|-1.0|-1.0|-1.0|-1.0|-1.0
10131|meņģelespamatskola|4312901086|Latviešu|MEŅĢELE, MEŅĢELES PAGASTS, OGRES NOVADS, LV-5047|2009|51|1|56.83808|25.33864|Ogres nov.|--|Meņģeles pag.|--|37579|--|--|37579|0.04859786929486033|True|Meņģeles pamatskola|0|-1.0|-1.0|-1.0|-1.0|-1.0|-1.0
10142|mērdzenespamatskola|4212900452|Latviešu|MĒRDZENE, MĒRDZENES PAGASTS, KĀRSAVAS NOVADS, LV-5726|2009|92|1|56.68559|27.7479|Kārsavas nov.|--|Mērdzenes pag.|--|6713|--|--|6713|0.049376185555386296|True|Mērdzenes pamatskola|0|-1.0|-1.0|-1.0|-1.0|-1.0|-1.0
10153|mērsragavidusskola|2213900624|Latviešu|SKOLAS IELA 8, MĒRSRAGS, MĒRSRAGA PAGASTS, ROJAS NOVADS, LV-3284|2009|221|1|57.34468|23.11088|Mērsraga nov.|--|--|--|1742|--|--|1742|0.11060859279459648|True|Mērsraga vidusskola|0|-1.0|-1.0|-1.0|-1.0|-1.0|-1.0
10164|mētrienaspamatskola|4412900114|Latviešu|MĒTRIENA, MĒTRIENAS PAGASTS, MADONAS NOVADS, LV-4865|2009|47|1|56.67271|26.31507|Madonas nov.|--|Mētrienas pag.|--|26712|--|--|26712|0.1220249749026806|True|Mētrienas pamatskola|0|-1.0|-1.0|-1.0|-1.0|-1.0|-1.0
1320|zemītespamatskola|4312900210|Latviešu|Pils, ZEMĪTE, ZEMĪTES PAGASTS, KANDAVAS NOVADS, LV-3135|2009|105|1|56.92675|22.79263|Kandavas nov.|--|Zemītes pag.|--|9466|--|--|9466|0.1087284700526937|True|Zemītes pamatskola|0|-1.0|-1.0|-1.0|-1.0|-1.0|-1.0
10175|mežārespamatskola|4512900278|LK|MEŽĀRE, MEŽĀRES PAGASTS, KRUSTPILS NOVADS, LV-5226|2009|77|1|56.52772|26.20924|Krustpils nov.|--|Mežāres pag.|--|6392|--|--|6392|0.11921373494694291|True|Mežāres pamatskola|0|-1.0|-1.0|-1.0|-1.0|-1.0|-1.0
10186|mežgaļupamatskola|412901311|Latviešu|BRUNAVA, BRUNAVAS PAGASTS, BAUSKAS NOVADS, LV-3907|2009|98|1|56.35648|24.38579|Bauskas nov.|--|Brunavas pag.|--|27161|--|--|27161|0.09095967128348732|True|Mežgaļu pamatskola|0|-1.0|-1.0|-1.0|-1.0|-1.0|-1.0
1408|ventspils1pamatskola|3212900030|Latviešu|Pļavas iela 25/27, VENTSPILS, LV-3601|2009|326|1|57.38268|21.56502|Ventspils nov.|--|Ances pag.|Ventspils|12821|--|40676|12821|0.005289357238835968|True|Ventspils 1. pamatskola|0|-1.0|-1.0|-1.0|-1.0|-1.0|-1.0
12694|sūnupamatskola|4512900284|Latviešu|SKOLAS IELA 1, KŪKAS, KŪKU PAGASTS, KRUSTPILS NOVADS, LV-5222|2009|86|1|56.54361|26.09109|Krustpils nov.|--|Kūku pag.|--|6392|--|--|6392|0.07666803571241804|True|Sūnu pamatskola|0|-1.0|-1.0|-1.0|-1.0|-1.0|-1.0
1067|varakļānunovadapašvaldībasstirnienespamatskola|4412900108|Latviešu|STIRNIENES MUIŽA, VARAKĻĀNU PAGASTS, VARAKĻĀNU NOVADS, LV-4837|2009|46|1|56.56731|26.64221|Varakļānu nov.|--|Varakļānu pag.|--|3714|--|--|3714|0.12275931777262461|True|Varakļānu novada pašvaldības Stirnienes pamatskola|0|-1.0|-1.0|-1.0|-1.0|-1.0|-1.0
1056|vānespamatskola|4312900251|Latviešu|Prātnieki, VĀNE, VĀNES PAGASTS, KANDAVAS NOVADS, LV-3131|2009|96|1|56.9235|22.56277|Kandavas nov.|--|Vānes pag.|--|9466|--|--|9466|0.06870974093969948|True|Vānes pamatskola|0|-1.0|-1.0|-1.0|-1.0|-1.0|-1.0
12672|suntažusanatorijasinternātpamatskola|4323901430|Latviešu|SUNTAŽI, SUNTAŽU PAGASTS, OGRES NOVADS, LV-5060|2009|90|1|56.90532|24.92231|Ogres nov.|--|Suntažu pag.|--|37579|--|--|37579|0.010320004844958987|True|Suntažu sanatorijas internātpamatskola|0|-1.0|-1.0|-1.0|-1.0|-1.0|-1.0
10648|pamūšasspeciālāinternātpamatskola|420901298|Latviešu|PAMŪŠA, GAILĪŠU PAGASTS, BAUSKAS NOVADS, LV-3931|2009|93|1|56.38472|24.23918|Bauskas nov.|--|Gailīšu pag.|--|27161|--|--|27161|0.031897311798960944|True|Pamūšas speciālā internātpamatskola|0|-1.0|-1.0|-1.0|-1.0|-1.0|-1.0
1045|vaiņodesvidusskola|4113900999|Latviešu|AVOTU IELA 4, VAIŅODE, VAIŅODES PAGASTS, VAIŅODES NOVADS, LV-3435|2009|292|1|56.42191|21.8563|Vaiņodes nov.|--|Vaiņodes pag.|--|2783|--|--|2783|0.022797352916511734|True|Vaiņodes vidusskola|0|-1.0|-1.0|-1.0|-1.0|-1.0|-1.0
1034|vaiņodesinternātpamatskola|4112901323|Latviešu|RAIŅA IELA 60, VAIŅODE, VAIŅODES PAGASTS, VAIŅODES NOVADS, LV-3435|2009|103|1|56.43519|21.87483|Vaiņodes nov.|--|Vaiņodes pag.|--|2783|--|--|2783|0.022797352916511734|True|Vaiņodes internātpamatskola|0|-1.0|-1.0|-1.0|-1.0|-1.0|-1.0
10670|pasienespamatskola|4212900454|Krievu|PASIENE, PASIENES PAGASTS, ZILUPES NOVADS, LV-5732|2009|72|1|56.2927|28.1579|Zilupes nov.|--|Pasienes pag.|--|3567|--|--|3567|0.09621452385165145|False|Pasienes pamatskola|0|-1.0|-1.0|-1.0|-1.0|-1.0|-1.0
10604|palsmanesspeciālāinternātpamatskola|4420900893|Latviešu|PALSMANE, PALSMANES PAGASTS, SMILTENES NOVADS, LV-4724|2009|103|1|57.39099|26.18272|Smiltenes nov.|--|Palsmanes pag.|--|13718|--|--|13718|0.0036565694304905865|True|Palsmanes speciālā internātpamatskola|0|-1.0|-1.0|-1.0|-1.0|-1.0|-1.0
10681|pastendespamatskola|2212900595|Latviešu|PASTENDE, ĢIBUĻU PAGASTS, TALSU NOVADS, LV-3251|2009|201|1|57.22575|22.52315|Talsu nov.|--|Ģibuļu pag.|--|33161|--|--|33161|0.046400475213081334|True|Pastendes pamatskola|0|-1.0|-1.0|-1.0|-1.0|-1.0|-1.0
10692|pāvilostasvidusskola|4113900994|Latviešu|DZINTARU IELA 52, PĀVILOSTA, PĀVILOSTAS NOVADS, LV-3466|2009|196|1|56.88267|21.20293|Pāvilostas nov.|Pāvilosta|--|--|3051|1081|--|3051|0.18650486669252947|True|Pāvilostas vidusskola|0|-1.0|-1.0|-1.0|-1.0|-1.0|-1.0
10703|pededzespamatskola|4412900912|LK|Rūķi, PEDEDZE, PEDEDZES PAGASTS, ALŪKSNES NOVADS, LV-4352|2009|88|1|57.48127|27.44809|Alūksnes nov.|--|Pededzes pag.|--|18258|--|--|18258|0.1387712798096226|True|Pededzes pamatskola|0|-1.0|-1.0|-1.0|-1.0|-1.0|-1.0
10714|pelčuspeciālāinternātpamatskola-attīstībascentrs|4120901177|Latviešu|Saules stari, PELČI, PELČU PAGASTS, KULDĪGAS NOVADS, LV-3322|2009|187|1|56.91739|21.96747|Kuldīgas nov.|--|Pelču pag.|--|26065|--|--|26065|0.048216513768628996|True|Pelču speciālā internātpamatskola-attīstības centrs|0|-1.0|-1.0|-1.0|-1.0|-1.0|-1.0
10725|pelēčupamatskola|4212900367|Latviešu|SKOLAS IELA 4, PELĒČI, PELĒČU PAGASTS, PREIĻU NOVADS, LV-5320|2009|63|1|56.14962|26.71945|Preiļu nov.|--|Pelēču pag.|--|11239|--|--|11239|0.0767368555519442|True|Pelēču pamatskola|0|-1.0|-1.0|-1.0|-1.0|-1.0|-1.0
1001|vabolesvidusskola|4213901322|Latviešu|VABOLE, VABOLES PAGASTS, DAUGAVPILS NOVADS, LV-5477|2009|174|1|56.02903|26.46276|Daugavpils nov.|--|Vaboles pag.|--|26747|--|--|26747|0.10905633865117498|True|Vaboles vidusskola|0|-1.0|-1.0|-1.0|-1.0|-1.0|-1.0
10736|penkulespamatskola|4512900878|Latviešu|PENKULE, PENKULES PAGASTS, DOBELES NOVADS, LV-3725|2009|97|1|56.4854|23.18121|Dobeles nov.|--|Penkules pag.|--|23462|--|--|23462|0.052047294838443475|True|Penkules pamatskola|0|-1.0|-1.0|-1.0|-1.0|-1.0|-1.0
10747|pērsespamatskola|112900984|Latviešu|IRŠU PAGASTS, KOKNESES NOVADS, LV-5108|2009|58|1|56.78097|25.56576|Kokneses nov.|--|Iršu pag.|--|5732|--|--|5732|0.03132782150102194|True|Pērses pamatskola|0|-1.0|-1.0|-1.0|-1.0|-1.0|-1.0
990|užavaspamatskola|4112900047|Latviešu|UŽAVA, UŽAVAS PAGASTS, VENTSPILS NOVADS, LV-3627|2009|93|1|57.22987|21.45901|Ventspils nov.|--|Užavas pag.|--|12821|--|--|12821|0.14807930645434478|True|Užavas pamatskola|0|-1.0|-1.0|-1.0|-1.0|-1.0|-1.0
979|umurgaspamatskola|4312900175|Latviešu|UMURGA, UMURGAS PAGASTS, LIMBAŽU NOVADS, LV-4004|2009|95|1|57.51811|24.80982|Limbažu nov.|--|Umurgas pag.|--|18743|--|--|18743|0.03955861600208155|True|Umurgas pamatskola|0|-1.0|-1.0|-1.0|-1.0|-1.0|-1.0
1023|vaidavasspeciālāinternātpamatskola|2520901174|Latviešu|SKOLAS IELA 5, VAIDAVA, VAIDAVAS PAGASTS, VALMIERAS NOVADS, LV-4228|2009|58|1|57.53057|25.39755|Kocēnu nov.|--|Vaidavas pag.|--|6652|--|--|6652|0.009624302572135838|True|Vaidavas speciālā internātpamatskola|0|-1.0|-1.0|-1.0|-1.0|-1.0|-1.0
10593|palsmanespamatskola|2412901218|Latviešu|PALSMANE, PALSMANES PAGASTS, SMILTENES NOVADS, LV-4724|2009|107|1|57.39099|26.18272|Smiltenes nov.|--|Palsmanes pag.|--|13718|--|--|13718|0.0036565694304905865|True|Palsmanes pamatskola|0|-1.0|-1.0|-1.0|-1.0|-1.0|-1.0
13530|vispārējāsvidējāsizglītībasizlīdzinošāprogrammapiekuldīgastehnoloģijuuntūrismaprofesionālāvidusskolas|1231001376|Latviešu|LIEPĀJAS IELA 31, KULDĪGA, KULDĪGAS NOVADS, LV-3301|2009|25|1|56.96862|21.96476|Kuldīgas nov.|Kuldīga|--|--|26065|12286|--|26065|0.0023070543990139805|True|Vispārējās vidējās izglītības izlīdzinošā programma pie Kuldīgas Tehnoloģiju un tūrisma profesionālā vidusskolas|0|-1.0|-1.0|-1.0|-1.0|-1.0|-1.0
10406|nirzaspamatskola|4212900456|Latviešu|NIRZA, NIRZAS PAGASTS, LUDZAS NOVADS, LV-5729|2009|84|1|56.40427|27.93176|Ludzas nov.|--|Isnaudas pag.|--|15121|--|--|15121|0.1506616620112753|True|Nirzas pamatskola|0|-1.0|-1.0|-1.0|-1.0|-1.0|-1.0
10417|nītauresvidusskola|4413900335|Latviešu|NĪTAURE, NĪTAURES PAGASTS, AMATAS NOVADS, LV-4112|2009|124|1|57.06707|25.19003|Amatas nov.|--|Nītaures pag.|--|6060|--|--|6060|0.10227218634604511|True|Nītaures vidusskola|0|-1.0|-1.0|-1.0|-1.0|-1.0|-1.0
1177|verēmupamatskola|4212901168|Latviešu|SONDORI, VĒRĒMU PAGASTS, RĒZEKNES NOVADS, LV-4647|2009|79|1|56.57316|27.36451|Rēzeknes nov.|--|Vērēmu pag.|--|29737|--|--|29737|0.01211422717303895|True|Verēmu pamatskola|0|-1.0|-1.0|-1.0|-1.0|-1.0|-1.0
10428|ņukšupamatskola|4212900455|Latviešu|ŅUKŠI, ŅUKŠU PAGASTS, LUDZAS NOVADS, LV-5730|2009|46|1|56.45608|27.72934|Ludzas nov.|--|Ņukšu pag.|--|15121|--|--|15121|0.051523793532694644|True|Ņukšu pamatskola|0|-1.0|-1.0|-1.0|-1.0|-1.0|-1.0
1166|vecumniekuvidusskola|413901290|Latviešu|RĪGAS IELA 24, VECUMNIEKI, VECUMNIEKU PAGASTS, VECUMNIEKU NOVADS, LV-3933|2009|381|1|56.6068109|24.5197427|Vecumnieku nov.|--|Vecumnieku pag.|--|9260|--|--|9260|0.06780799979427178|True|Vecumnieku vidusskola|0|-1.0|-1.0|-1.0|-1.0|-1.0|-1.0
10439|ogresgalapamatskola|4312900194|Latviešu|NĀKOTNES IELA 4, OGRESGALS, OGRESGALA PAGASTS, OGRES NOVADS, LV-5041|2009|158|1|56.79564|24.73957|Ogres nov.|Ogre|--|--|37579|25640|--|37579|0.05485283675435773|True|Ogresgala pamatskola|0|-1.0|-1.0|-1.0|-1.0|-1.0|-1.0
10461|ojāravāciešagaujienasvidusskola|4413900898|Latviešu|GAUJIENA, GAUJIENAS PAGASTS, APES NOVADS, LV-4339|2009|131|1|57.51826|26.40142|Apes nov.|--|Gaujienas pag.|--|4106|--|--|4106|0.007168626088728339|True|Ojāra Vācieša Gaujienas vidusskola|0|-1.0|-1.0|-1.0|-1.0|-1.0|-1.0
10472|olaines1vidusskola|4313901122|LK|ZEIFERTA IELA 4, OLAINE, OLAINES NOVADS, LV-2114|2009|821|1|56.7879|23.94187|Olaines nov.|Olaine|--|--|20037|12450|--|20037|0.00898818112857255|True|Olaines 1. vidusskola|0|-1.0|-1.0|-1.0|-1.0|-1.0|-1.0
1144|vecsaulespamatskola|4512901302|Latviešu|VECSAULES PAGASTS, BAUSKAS NOVADS, LV-3932|2009|151|1|56.43255|24.33592|Bauskas nov.|--|Vecsaules pag.|--|27161|--|--|27161|0.08633346106811665|True|Vecsaules pamatskola|0|-1.0|-1.0|-1.0|-1.0|-1.0|-1.0
10483|olaines2vidusskola|4313901129|Krievu|SKOLAS IELA 1, OLAINE, OLAINES NOVADS, LV-2114|2009|628|1|56.78235|23.9348|Olaines nov.|Olaine|--|--|20037|12450|--|20037|0.00898818112857255|True|Olaines 2. vidusskola|0|-1.0|-1.0|-1.0|-1.0|-1.0|-1.0
10494|oskarakalpakarudbāržupamatskola|4112901183|Latviešu|RUDBĀRŽI, RUDBĀRŽU PAGASTS, SKRUNDAS NOVADS, LV-3324|2009|86|1|56.64072|21.88878|Skrundas nov.|--|Rudbāržu pag.|--|5634|--|--|5634|0.005414471350004659|True|Oskara Kalpaka Rudbāržu pamatskola|0|-1.0|-1.0|-1.0|-1.0|-1.0|-1.0
1133|vecpiebalgasvidusskola|4413900341|Latviešu|GAISMAS IELA 2, VECPIEBALGA, VECPIEBALGAS PAGASTS, VECPIEBALGAS NOVADS, LV-4122|2009|304|1|57.0626849|25.8117214|Vecpiebalgas nov.|--|Vecpiebalgas pag.|--|4476|--|--|4476|0.05178790354870714|True|Vecpiebalgas vidusskola|0|-1.0|-1.0|-1.0|-1.0|-1.0|-1.0
1122|vārmespamatskola|4112901178|Latviešu|VĀRME, VĀRMES PAGASTS, KULDĪGAS NOVADS, LV-3333|2009|111|1|56.87474|22.24066|Kuldīgas nov.|--|Vārmes pag.|--|26065|--|--|26065|0.1674107275535276|True|Vārmes pamatskola|0|-1.0|-1.0|-1.0|-1.0|-1.0|-1.0
12683|suntažuvidusskola|1713900187|Latviešu|SUNTAŽI, SUNTAŽU PAGASTS, OGRES NOVADS, LV-5060|2009|249|1|56.90532|24.92231|Ogres nov.|--|Suntažu pag.|--|37579|--|--|37579|0.010320004844958987|True|Suntažu vidusskola|0|-1.0|-1.0|-1.0|-1.0|-1.0|-1.0
10516|ozolainespamatskola|412901312|Latviešu|OZOLAINE, VECSAULES PAGASTS, BAUSKAS NOVADS, LV-3936|2009|96|1|56.43232|24.46519|Bauskas nov.|--|Dāviņu pag.|--|27161|--|--|27161|0.10980011657552952|True|Ozolaines pamatskola|0|-1.0|-1.0|-1.0|-1.0|-1.0|-1.0
10527|ozolkalnapamatskola|4412900957|Latviešu|OZOLKALNS, BEĻAVAS PAGASTS, GULBENES NOVADS, LV-4410|2009|83|1|57.19445|26.69478|Gulbenes nov.|--|Beļavas pag.|--|24310|--|--|24310|0.06322727971374326|True|Ozolkalna pamatskola|0|-1.0|-1.0|-1.0|-1.0|-1.0|-1.0
1111|vārkavasvidusskola|4213900377|Latviešu|SKOLAS IELA 4, VECVĀRKAVA, UPMALAS PAGASTS, VĀRKAVAS NOVADS, LV-5335|2009|151|1|56.19639|26.51192|Vārkavas nov.|--|Upmalas pag.|--|2244|--|--|2244|0.07630264281137168|True|Vārkavas vidusskola|0|-1.0|-1.0|-1.0|-1.0|-1.0|-1.0
10538|ozolmuižaspamatskola|4312900170|Latviešu|Ozolmuižas pils, OZOLMUIŽA, BRĪVZEMNIEKU PAGASTS, ALOJAS NOVADS, LV-4063|2009|60|1|57.63742|25.04699|Alojas nov.|--|Brīvzemnieku pag.|--|5792|--|--|5792|0.1006047757315701|True|Ozolmuižas pamatskola|0|-1.0|-1.0|-1.0|-1.0|-1.0|-1.0
10549|pabažupamatskola|2012901106|Latviešu|MAIJA IELA 7/9, PABAŽI, SĒJAS NOVADS, LV-2162|2009|49|1|57.2627888|24.593023|Sējas nov.|--|--|--|2286|--|--|2286|0.1080265042961175|True|Pabažu pamatskola|0|-1.0|-1.0|-1.0|-1.0|-1.0|-1.0
1100|vārkavaspamatskola|4212900353|Latviešu|VĀRKAVA, VĀRKAVAS PAGASTS, VĀRKAVAS NOVADS, LV-5337|2009|56|1|56.24776|26.56834|Vārkavas nov.|--|Vārkavas pag.|--|2244|--|--|2244|0.07630264281137168|True|Vārkavas pamatskola|0|-1.0|-1.0|-1.0|-1.0|-1.0|-1.0
10571|pālespamatskola|4312900171|Latviešu|PĀLE, PĀLES PAGASTS, LIMBAŽU NOVADS, LV-4052|2009|82|1|57.69933|24.66872|Limbažu nov.|--|Katvaru pag.|--|18743|--|--|18743|0.10321565046058069|True|Pāles pamatskola|0|-1.0|-1.0|-1.0|-1.0|-1.0|-1.0
1089|variņupamatskola|2412901219|Latviešu|OKTOBRA IELA 13, VARIŅI, VARIŅU PAGASTS, SMILTENES NOVADS, LV-4726|2009|92|1|57.31925|26.16903|Apes nov.|--|Virešu pag.|--|4106|--|--|4106|0.07111042820853165|True|Variņu pamatskola|0|-1.0|-1.0|-1.0|-1.0|-1.0|-1.0
10395|nīkrācespamatskola|4112901185|Latviešu|NĪKRĀCE, NĪKRĀCES PAGASTS, SKRUNDAS NOVADS, LV-3320|2009|69|1|56.53432|21.94168|Skrundas nov.|--|Nīkrāces pag.|--|5634|--|--|5634|0.1188249552913876|True|Nīkrāces pamatskola|0|-1.0|-1.0|-1.0|-1.0|-1.0|-1.0
2739|rīgas45vidusskola|3713900742|Latviešu|ROPAŽU IELA 34, RĪGA, LV-1006|2009|616|1|56.97961|24.17407|--|--|--|Rīga|--|--|687443|687443|0.003720228487605763|True|Rīgas 45. vidusskola|0|-1.0|-1.0|-1.0|-1.0|-1.0|-1.0
9988|matkulespamatskola|4312900237|Latviešu|MATKULES PAGASTS, KANDAVAS NOVADS, LV-3132|2009|88|1|56.98331|22.59659|Kandavas nov.|--|Matkules pag.|--|9466|--|--|9466|0.06870974093969948|True|Matkules pamatskola|0|-1.0|-1.0|-1.0|-1.0|-1.0|-1.0
12782|talsu2pamatskola|4112902410|Latviešu|BRĪVĪBAS IELA 29, TALSI, TALSU NOVADS, LV-3201|2009|94|1|57.24018|22.59155|Talsu nov.|Talsi|--|--|33161|10946|--|33161|0.0073139114022503764|True|Talsu 2. pamatskola|0|-1.0|-1.0|-1.0|-1.0|-1.0|-1.0
9427|liepnasvidusskola|4413900902|Latviešu|LIEPNA, LIEPNAS PAGASTS, ALŪKSNES NOVADS, LV-4354|2009|146|1|57.34384|27.48715|Alūksnes nov.|--|Liepnas pag.|--|18258|--|--|18258|0.006691621627079248|True|Liepnas vidusskola|0|-1.0|-1.0|-1.0|-1.0|-1.0|-1.0
1727|āgenskalnaģimnāzija|3513900642|Latviešu|ĀGENSKALNA IELA 21a, RĪGA, LV-1048|2009|643|1|56.94683|24.06347|--|--|--|Rīga|--|--|687443|687443|0.002360275407658769|False|Āgenskalna ģimnāzija|0|-1.0|-1.0|-1.0|-1.0|-1.0|-1.0
9449|liepupesvidusskola|4313900158|Latviešu|Veiksmes, LIEPUPE, LIEPUPES PAGASTS, SALACGRĪVAS NOVADS, LV-4023|2009|202|1|57.46733|24.46156|Salacgrīvas nov.|--|Liepupes pag.|--|8940|--|--|8940|0.13915407575776997|True|Liepupes vidusskola|0|-1.0|-1.0|-1.0|-1.0|-1.0|-1.0
9460|liezērespamatskola|4412900117|Latviešu|JAUNATNES IELA 6, OZOLI, LIEZĒRES PAGASTS, MADONAS NOVADS, LV-4884|2009|81|1|56.98129|26.05064|Madonas nov.|--|Liezēres pag.|--|26712|--|--|26712|0.11429525668198276|True|Liezēres pamatskola|0|-1.0|-1.0|-1.0|-1.0|-1.0|-1.0
1716|valmierasviesturavidusskola|2513900631|Latviešu|VIESTURA ALEJA 3, VALMIERA, LV-4201|2009|777|1|57.55026|25.43311|--|--|--|Valmiera|--|--|26397|26397|0.011246261601084382|True|Valmieras Viestura vidusskola|1|-1.0|-1.0|-1.0|-1.0|-1.0|-1.0
9471|līgatnesnovadavidusskola|4413900337|Latviešu|STRAUTU IELA 4, LĪGATNE, LĪGATNES NOVADS, LV-4110|2009|247|1|57.2346|25.03449|Līgatnes nov.|Līgatne|--|--|3897|1227|--|3897|0.04422172542992963|True|Līgatnes novada vidusskola|0|-1.0|-1.0|-1.0|-1.0|-1.0|-1.0
9482|limbažu1vidusskola|4313901395|Latviešu|RĪGAS IELA 28, LIMBAŽI, LIMBAŽU NOVADS, LV-4001|2009|552|1|57.50749|24.71271|Limbažu nov.|Limbaži|--|--|18743|8259|--|18743|0.0005953990258592298|True|Limbažu 1. vidusskola|1|-1.0|-1.0|-1.0|-1.0|-1.0|-1.0
1705|valmierasvalstsģimnāzija|2519902526|Latviešu|LEONA PAEGLES IELA 40, VALMIERA, LV-4201|2009|603|1|57.53273|25.40853|--|--|--|Valmiera|--|--|26397|26397|0.0044576451182211175|True|Valmieras Valsts ģimnāzija|3|-1.0|-1.0|-1.0|-1.0|-1.0|-1.0
9493|limbažu2vidusskola|4313901465|Latviešu|RĪGAS IELA 30, LIMBAŽI, LIMBAŽU NOVADS, LV-4001|2009|152|1|57.5069|24.71279|Limbažu nov.|Limbaži|--|--|18743|8259|--|18743|0.0005953990258592298|True|Limbažu 2. vidusskola|0|-1.0|-1.0|-1.0|-1.0|-1.0|-1.0
9504|limbažu3vidusskola|4313901881|Latviešu|PARKA IELA 38, LIMBAŽI, LIMBAŽU NOVADS, LV-4001|2009|629|1|57.5063|24.71017|Limbažu nov.|Limbaži|--|--|18743|8259|--|18743|0.0026878243990226033|True|Limbažu 3. vidusskola|0|-1.0|-1.0|-1.0|-1.0|-1.0|-1.0
1738|āgenskalnasākumskola|3511900641|Latviešu|KANDAVAS IELA 4/1, RĪGA, LV-1083|2009|548|1|56.9507|24.0534|--|--|--|Rīga|--|--|687443|687443|0.004176338108917482|True|Āgenskalna sākumskola|0|-1.0|-1.0|-1.0|-1.0|-1.0|-1.0
1683|valmierasvājdzirdīgobērnuinternātpamatskola-attīstībascentrs|2520901175|Latviešu|LĀČPLĒŠA IELA 2, VALMIERA, LV-4201|2009|130|1|57.53898|25.42666|--|--|--|Valmiera|--|--|26397|26397|0.003482097069293373|False|Valmieras vājdzirdīgo bērnu internātpamatskola - attīstības centrs|0|-1.0|-1.0|-1.0|-1.0|-1.0|-1.0
13486|viļānuvidusskola|4213900184|LK|RĒZEKNES IELA 1a, VIĻĀNI, VIĻĀNU NOVADS, LV-4650|2009|616|1|56.55134|26.92521|Viļānu nov.|Viļāni|--|--|6736|3396|--|6736|0.11104632591851495|True|Viļānu vidusskola|0|-1.0|-1.0|-1.0|-1.0|-1.0|-1.0
12771|taborespamatskola|4212900509|Krievu|OKTOBRA IELA 39, TABORE, TABORES PAGASTS, DAUGAVPILS NOVADS, LV-5465|2009|58|1|55.86687|26.66099|Daugavpils nov.|--|Tabores pag.|--|26747|--|--|26747|0.07469892167896003|True|Tabores pamatskola|0|-1.0|-1.0|-1.0|-1.0|-1.0|-1.0
9548|litenespamatskola|4412900958|Latviešu|LITENE, LITENES PAGASTS, GULBENES NOVADS, LV-4405|2009|74|1|57.18766|27.02136|Gulbenes nov.|--|Litenes pag.|--|24310|--|--|24310|0.1043221917906225|True|Litenes pamatskola|0|-1.0|-1.0|-1.0|-1.0|-1.0|-1.0
9570|līvānu1vidusskola|1813900374|Latviešu|RĪGAS IELA 101, LĪVĀNI, LĪVĀNU NOVADS, LV-5316|2009|653|1|56.35814|26.17172|Līvānu nov.|Līvāni|--|--|13373|8676|--|13373|0.0019259543089100327|True|Līvānu 1. vidusskola|0|-1.0|-1.0|-1.0|-1.0|-1.0|-1.0
9581|līvānu2vidusskola|1813900387|Krievu|RĪGAS IELA 113/117, LĪVĀNI, LĪVĀNU NOVADS, LV-5316|2009|271|1|56.35996|26.17235|Līvānu nov.|Līvāni|--|--|13373|8676|--|13373|0.0019259543089100327|True|Līvānu 2. vidusskola|0|-1.0|-1.0|-1.0|-1.0|-1.0|-1.0
9416|liepnasinternātpamatskola|4412900919|Latviešu|Cielaviņas, LIEPNA, LIEPNAS PAGASTS, ALŪKSNES NOVADS, LV-4354|2009|110|1|57.34257|27.48058|Alūksnes nov.|--|Liepnas pag.|--|18258|--|--|18258|0.006407807737439855|True|Liepnas internātpamatskola|0|-1.0|-1.0|-1.0|-1.0|-1.0|-1.0
9405|liepaspamatskola|4412900324|LK|RŪPNĪCAS IELA 12, LIEPA, LIEPAS PAGASTS, PRIEKUĻU NOVADS, LV-4128|2009|217|1|57.38667|25.42113|Priekuļu nov.|--|Liepas pag.|--|8936|--|--|8936|0.09449254626688867|True|Liepas pamatskola|0|-1.0|-1.0|-1.0|-1.0|-1.0|-1.0
1749|āgenskalnavalstsģimnāzija|3819900703|Latviešu|LAVĪZES IELA 2a, RĪGA, LV-1002|2009|725|1|56.94164|24.07302|--|--|--|Rīga|--|--|687443|687443|0.003481738071710423|True|Āgenskalna Valsts ģimnāzija|0|-1.0|-1.0|-1.0|-1.0|-1.0|-1.0
9229|laucienespamatskola|4112900594|Latviešu|LAUCIENES PAGASTS, TALSU NOVADS, LV-3285|2009|272|1|57.22777|22.74879|Talsu nov.|--|Laucienes pag.|--|33161|--|--|33161|0.11308275244262221|True|Laucienes pamatskola|0|-1.0|-1.0|-1.0|-1.0|-1.0|-1.0
1848|habadebrejuprivātāvidusskola|3613802155|Krievu|LĀČPLĒŠA IELA 141, RĪGA, LV-1003|2009|64|1|56.94157|24.13165|--|--|--|Rīga|--|--|687443|687443|0.003562021897743106|True|Habad Ebreju privātā vidusskola|0|-1.0|-1.0|-1.0|-1.0|-1.0|-1.0
9240|ļaudonasvidusskola|4413900129|Latviešu|SKOLAS IELA 2, ĻAUDONA, ĻAUDONAS PAGASTS, MADONAS NOVADS, LV-4862|2009|141|1|56.70383|26.19708|Madonas nov.|--|Ļaudonas pag.|--|26712|--|--|26712|0.11451017465710042|True|Ļaudonas vidusskola|0|-1.0|-1.0|-1.0|-1.0|-1.0|-1.0
9251|launkalnespamatskola|2412901211|Latviešu|LAUNKALNE, LAUNKALNES PAGASTS, SMILTENES NOVADS, LV-4718|2009|24|1|57.32899|25.85877|Smiltenes nov.|--|Launkalnes pag.|--|13718|--|--|13718|0.09423726704441704|True|Launkalnes pamatskola|0|-1.0|-1.0|-1.0|-1.0|-1.0|-1.0
1837|fričabrīvzemniekapamatskola|3812900716|Latviešu|ZEĻĻU IELA 4, RĪGA, LV-1004|2009|382|1|56.93545|24.07462|--|--|--|Rīga|--|--|687443|687443|0.006393441952497667|True|Friča Brīvzemnieka pamatskola|0|-1.0|-1.0|-1.0|-1.0|-1.0|-1.0
9284|lažasspeciālāinternātpamatskola|1320901035|Latviešu|LAŽAS PAGASTS, AIZPUTES NOVADS, LV-3456|2009|73|1|56.80478|21.50401|Aizputes nov.|Aizpute|--|--|9965|4932|--|9965|0.09895100050024686|True|Lažas speciālā internātpamatskola|0|-1.0|-1.0|-1.0|-1.0|-1.0|-1.0
1815|dienasapmācībasklasespierīgasvakaraģimnāzijas|3614900691|LK|GAIZIŅA IELA 1, RĪGA, LV-1050|2009|167|1|56.94459|24.12048|--|--|--|Rīga|--|--|687443|687443|0.00559014311086732|True|Dienas apmācības klases pie Rīgas vakara ģimnāzijas|0|-1.0|-1.0|-1.0|-1.0|-1.0|-1.0
9295|lazdonaspamatskola|4412900119|Latviešu|Jurģkalni, LAZDONA, LAZDONAS PAGASTS, MADONAS NOVADS, LV-4824|2009|71|1|56.82886|26.23194|Madonas nov.|--|Lazdonas pag.|--|26712|--|--|26712|0.028443983546618517|True|Lazdonas pamatskola|0|-1.0|-1.0|-1.0|-1.0|-1.0|-1.0
12793|talsu2vidusskola|4113900617|Latviešu|KĀRĻA MĪLENBAHA IELA 32, TALSI, TALSU NOVADS, LV-3201|2009|865|1|57.24361|22.60445|Talsu nov.|Talsi|--|--|33161|10946|--|33161|0.0009500526301206106|True|Talsu 2. vidusskola|0|-1.0|-1.0|-1.0|-1.0|-1.0|-1.0
9306|lēdmanespamatskola|4312901329|Latviešu|LĒDMANE, LĒDMANES PAGASTS, LIELVĀRDES NOVADS, LV-5011|2009|116|1|56.76755|24.99261|Lielvārdes nov.|--|Lēdmanes pag.|--|10683|--|--|10683|0.09211407330044633|True|Lēdmanes pamatskola|0|-1.0|-1.0|-1.0|-1.0|-1.0|-1.0
1804|dienasapmācībasklasespierīgasraiņa8vakara(maiņu)vidusskolas|3414900800|Latviešu|KRIŠJĀŅA BARONA IELA 71, RĪGA, LV-1001|2009|23|1|56.95786|24.13434|--|--|--|Rīga|--|--|687443|687443|0.002821790211900692|False|Dienas apmācības klases pie Rīgas Raiņa 8. vakara (maiņu) vidusskolas|0|-1.0|-1.0|-1.0|-1.0|-1.0|-1.0
9317|lejasciemavidusskola|813900964|Latviešu|RĪGAS IELA 20, LEJASCIEMS, LEJASCIEMA PAGASTS, GULBENES NOVADS, LV-4412|2009|190|1|57.2788|26.57483|Gulbenes nov.|--|Lejasciema pag.|--|24310|--|--|24310|0.1396963915067294|True|Lejasciema vidusskola|0|-1.0|-1.0|-1.0|-1.0|-1.0|-1.0
9328|lejasstrazdupamatskola|4512900877|LK|LEJASSTRAZDI, DOBELES PAGASTS, DOBELES NOVADS, LV-3722|2009|79|1|56.66028|23.31138|Dobeles nov.|--|Dobeles pag.|--|23462|--|--|23462|0.0017702259742768396|True|Lejasstrazdu pamatskola|0|-1.0|-1.0|-1.0|-1.0|-1.0|-1.0
1793|dienasapmācībasklasespierīgas9vakara(maiņu)vidusskolas|3714900782|LK|STĀMERIENAS IELA 8, RĪGA, LV-1006|2009|97|1|56.98037|24.19873|--|--|--|Rīga|--|--|687443|687443|0.00013453624047361882|False|Dienas apmācības klases pie Rīgas 9. vakara (maiņu) vidusskolas|0|-1.0|-1.0|-1.0|-1.0|-1.0|-1.0
13475|viļakasvalstsģimnāzija|4219900075|Latviešu|PILS IELA 11, VIĻAKA, VIĻAKAS NOVADS, LV-4583|2009|141|1|57.18291|27.68683|Viļakas nov.|Viļaka|--|--|6105|1557|--|6105|0.06359383382058284|True|Viļakas Valsts ģimnāzija|0|-1.0|-1.0|-1.0|-1.0|-1.0|-1.0
9350|lībagusākumskola|4111900602|Latviešu|DIŽSTENDE, LĪBAGU PAGASTS, TALSU NOVADS, LV-3258|2009|67|1|57.19196|22.55495|Talsu nov.|--|Lībagu pag.|--|33161|--|--|33161|0.046400475213081334|True|Lībagu sākumskola|0|-1.0|-1.0|-1.0|-1.0|-1.0|-1.0
1771|biznesaunvadībasprivātvidusskola|3713800008|Latviešu|HIPOKRĀTA IELA 27A, RĪGA, LV-1079|2009|15|1|56.96257|24.23773|--|--|--|Rīga|--|--|687443|687443|0.0009002777349250618|True|Biznesa un vadības privātvidusskola|0|-1.0|-1.0|-1.0|-1.0|-1.0|-1.0
9383|lielplatonesspeciālāinternātpamatskola|4520900862|Latviešu|LIELPLATONE, LIELPLATONES PAGASTS, JELGAVAS NOVADS, LV-3022|2009|169|1|56.44899|23.66157|Jelgavas nov.|--|Lielplatones pag.|--|25920|--|--|25920|0.04780389628471765|True|Lielplatones speciālā internātpamatskola|0|-1.0|-1.0|-1.0|-1.0|-1.0|-1.0
1760|andrejapumpurarīgas11pamatskola|3612900689|Latviešu|MASKAVAS IELA 197, RĪGA, LV-1019|2009|317|1|56.93302|24.16124|--|--|--|Rīga|--|--|687443|687443|0.0014468241081752277|True|Andreja Pumpura Rīgas 11. pamatskola|0|-1.0|-1.0|-1.0|-1.0|-1.0|-1.0
9394|lielvārdespamatskola|4312900195|LK|AVOTU IELA 2, LIELVĀRDE, LIELVĀRDES NOVADS, LV-5071|2009|294|1|56.73364|24.80285|Ķeguma nov.|--|Rembates pag.|--|5943|--|--|5943|0.025882667945945372|True|Lielvārdes pamatskola|0|-1.0|-1.0|-1.0|-1.0|-1.0|-1.0
1419|ventspils2pamatskola|3212900031|LK|BĒRZU IELA 54, VENTSPILS, LV-3601|2009|341|1|57.3877|21.55007|Ventspils nov.|--|Ances pag.|Ventspils|12821|--|40676|12821|0.008297812964870954|True|Ventspils 2. pamatskola|0|-1.0|-1.0|-1.0|-1.0|-1.0|-1.0
1639|valmieraspārgaujaspamatskola|2512902432|Latviešu|MEŽA IELA 12, VALMIERA, LV-4201|2009|504|1|57.52726|25.42941|--|--|--|Valmiera|--|--|26397|26397|0.003833171011056647|True|Valmieras Pārgaujas pamatskola|0|-1.0|-1.0|-1.0|-1.0|-1.0|-1.0
9614|līvbērzesvidusskola|4513901729|Latviešu|SKOLAS IELA 10, LĪVBĒRZE, LĪVBĒRZES PAGASTS, JELGAVAS NOVADS, LV-3014|2009|156|1|56.69002|23.49009|Jelgavas nov.|--|Glūdas pag.|--|25920|--|--|25920|0.086446668530367|True|Līvbērzes vidusskola|0|-1.0|-1.0|-1.0|-1.0|-1.0|-1.0
9812|maltas1vidusskola|4213901160|Latviešu|SKOLAS IELA 5, MALTA, MALTAS PAGASTS, RĒZEKNES NOVADS, LV-4630|2009|373|1|56.34731|27.15699|Rēzeknes nov.|--|Lūznavas pag.|--|29737|--|--|29737|0.0016823792675820049|True|Maltas 1. vidusskola|0|-1.0|-1.0|-1.0|-1.0|-1.0|-1.0
9823|maltas2vidusskola|4213901074|Krievu|SPORTA IELA 5, MALTA, MALTAS PAGASTS, RĒZEKNES NOVADS, LV-4630|2009|243|1|56.34891|27.15647|Rēzeknes nov.|--|Lūznavas pag.|--|29737|--|--|29737|0.0016823792675820049|True|Maltas 2. vidusskola|0|-1.0|-1.0|-1.0|-1.0|-1.0|-1.0
9845|maltasspeciālāsanatorijasinternātpamatskola|4223900956|LK|ROZENTOVAS IELA 9, MALTA, MALTAS PAGASTS, RĒZEKNES NOVADS, LV-4630|2009|134|1|56.34214|27.18248|Rēzeknes nov.|--|Lūznavas pag.|--|29737|--|--|29737|0.02600901766695669|False|Maltas speciālā sanatorijas internātpamatskola|0|-1.0|-1.0|-1.0|-1.0|-1.0|-1.0
9867|mālupespamatskola|4412900907|Latviešu|Pīlādži, MĀLUPE, MĀLUPES PAGASTS, ALŪKSNES NOVADS, LV-4358|2009|73|1|57.33906|27.23323|Alūksnes nov.|--|Mālupes pag.|--|18258|--|--|18258|0.06806607451586608|True|Mālupes pamatskola|0|-1.0|-1.0|-1.0|-1.0|-1.0|-1.0
1485|ventspilscentrapamatskola|3212902422|Latviešu|BRĪVĪBAS IELA 15, VENTSPILS, LV-3601|2009|299|1|57.3934|21.57379|Ventspils nov.|--|Ances pag.|Ventspils|12821|--|40676|12821|0.002086144769664345|True|Ventspils Centra pamatskola|0|-1.0|-1.0|-1.0|-1.0|-1.0|-1.0
9878|mārcienaspamatskola|4412900116|Latviešu|MEŽA IELA 23, MĀRCIENA, MĀRCIENAS PAGASTS, MADONAS NOVADS, LV-4852|2009|71|1|56.76532|26.10048|Madonas nov.|--|Mārcienas pag.|--|26712|--|--|26712|0.08117742666529938|True|Mārcienas pamatskola|0|-1.0|-1.0|-1.0|-1.0|-1.0|-1.0
1474|ventspils6vidusskola|3213900037|LK|SARKANMUIŽAS DAMBIS 1, VENTSPILS, LV-3601|2009|782|1|57.39324|21.57171|Ventspils nov.|--|Ances pag.|Ventspils|12821|--|40676|12821|0.0018777113729256925|True|Ventspils 6. vidusskola|0|-1.0|-1.0|-1.0|-1.0|-1.0|-1.0
9900|mārkalnespamatskola|4412900903|Latviešu|Pūcīte, MĀRKALNE, MĀRKALNES PAGASTS, ALŪKSNES NOVADS, LV-4351|2009|66|1|57.49113|27.19014|Alūksnes nov.|--|Mārkalnes pag.|--|18258|--|--|18258|0.0917213851836077|True|Mārkalnes pamatskola|0|-1.0|-1.0|-1.0|-1.0|-1.0|-1.0
1463|ventspils5vidusskola|3213900036|Latviešu|TĀRGALES IELA 61, VENTSPILS, LV-3604|2009|477|1|57.4009|21.6048|--|--|--|Ventspils|--|--|40676|40676|0.012810402023355481|True|Ventspils 5. vidusskola|0|-1.0|-1.0|-1.0|-1.0|-1.0|-1.0
9911|mārsnēnupamatskola|4412900330|Latviešu|Gaismas, MĀRSNĒNI, MĀRSNĒNU PAGASTS, PRIEKUĻU NOVADS, LV-4129|2009|87|1|57.41714|25.57377|Priekuļu nov.|--|Mārsnēnu pag.|--|8936|--|--|8936|0.0963279549248314|True|Mārsnēnu pamatskola|0|-1.0|-1.0|-1.0|-1.0|-1.0|-1.0
1452|ventspils4vidusskola|3213900035|Latviešu|RĪGAS IELA 12a, VENTSPILS, LV-3601|2009|704|1|57.39413|21.55684|Ventspils nov.|--|Ances pag.|Ventspils|12821|--|40676|12821|0.0039578276869986755|True|Ventspils 4. vidusskola|0|-1.0|-1.0|-1.0|-1.0|-1.0|-1.0
9933|mārupespamatskola|4312901121|Latviešu|VISKALNU IELA 7, TĪRAINE, MĀRUPES NOVADS, LV-2167|2009|125|1|56.88503|24.06427|Mārupes nov.|--|--|--|14656|--|--|14656|0.010391559074557967|True|Mārupes pamatskola|0|-1.0|-1.0|-1.0|-1.0|-1.0|-1.0
1441|ventspils3vidusskola|3213900034|Krievu|TĀRGALES IELA 5, VENTSPILS, LV-3602|2009|497|1|57.40448|21.5925|--|--|--|Ventspils|--|--|40676|40676|0.012810402023355481|True|Ventspils 3. vidusskola|0|-1.0|-1.0|-1.0|-1.0|-1.0|-1.0
9955|mārupesvidusskola|4313901090|Latviešu|KANTORA IELA 97, MĀRUPE, MĀRUPES NOVADS, LV-2167|2009|809|1|56.91874|24.03648|Mārupes nov.|--|--|--|14656|--|--|14656|0.015950554849283545|True|Mārupes vidusskola|0|-1.0|-1.0|-1.0|-1.0|-1.0|-1.0
9966|māterujurakazdangaspamatskola|4112901019|Latviešu|VALĀTA, KAZDANGAS PAGASTS, AIZPUTES NOVADS, LV-3457|2009|190|1|56.72108|21.72723|Aizputes nov.|--|Kazdangas pag.|--|9965|--|--|9965|0.11708157839728972|True|Māteru Jura Kazdangas pamatskola|0|-1.0|-1.0|-1.0|-1.0|-1.0|-1.0
1430|ventspils2vidusskola|3213900033|Krievu|KULDĪGAS IELA 65/67, VENTSPILS, LV-3601|2009|586|1|57.38786|21.56609|Ventspils nov.|--|Ances pag.|Ventspils|12821|--|40676|12821|0.005289357238835968|True|Ventspils 2. vidusskola|0|-1.0|-1.0|-1.0|-1.0|-1.0|-1.0
13508|vircavasvidusskola|4513900861|Latviešu|VIRCAVA, VIRCAVAS PAGASTS, JELGAVAS NOVADS, LV-3020|2009|330|1|56.631|23.77829|Jelgavas nov.|--|Jaunsvirlaukas pag.|--|25920|--|--|25920|0.03793039941787987|True|Vircavas vidusskola|0|-1.0|-1.0|-1.0|-1.0|-1.0|-1.0
9977|matīšupamatskola|2512900636|Latviešu|SKOLAS IELA 22, MATĪŠI, MATĪŠU PAGASTS, BURTNIEKU NOVADS, LV-4210|2009|124|1|57.69511|25.15224|Alojas nov.|--|Braslavas pag.|--|5792|--|--|5792|0.11634704293620629|True|Matīšu pamatskola|0|-1.0|-1.0|-1.0|-1.0|-1.0|-1.0
9801|mālpilsvidusskola|2013901102|Latviešu|SPORTA IELA 1, MĀLPILS, MĀLPILS NOVADS, LV-2152|2009|354|1|57.00514|24.95754|Mālpils nov.|--|--|--|3843|--|--|3843|0.007924291766463627|True|Mālpils vidusskola|0|-1.0|-1.0|-1.0|-1.0|-1.0|-1.0
1628|valmieraspārgaujasģimnāzija|2513900630|Latviešu|ZVAIGŽŅU IELA 4, VALMIERA, LV-4201|2009|711|1|57.52992|25.42665|--|--|--|Valmiera|--|--|26397|26397|0.003833171011056647|True|Valmieras Pārgaujas ģimnāzija|0|-1.0|-1.0|-1.0|-1.0|-1.0|-1.0
9636|lizumavidusskola|4413900963|Latviešu|Pils, LIZUMS, LIZUMA PAGASTS, GULBENES NOVADS, LV-4425|2009|202|1|57.19245|26.37192|Gulbenes nov.|--|Lizuma pag.|--|24310|--|--|24310|0.07742348803819261|True|Lizuma vidusskola|0|-1.0|-1.0|-1.0|-1.0|-1.0|-1.0
1617|valmieraspamatskola|2512902507|Latviešu|RĪGAS IELA 42, VALMIERA, LV-4201|2009|415|1|57.53714|25.40918|--|--|--|Valmiera|--|--|26397|26397|0.0015616977940654598|True|Valmieras pamatskola|0|-1.0|-1.0|-1.0|-1.0|-1.0|-1.0
9647|lubānasvidusskola|4413900130|Latviešu|KRASTA IELA 6, LUBĀNA, LUBĀNAS NOVADS, LV-4830|2009|289|1|56.90328|26.71814|Lubānas nov.|Lubāna|--|--|2669|1773|--|2669|0.08613199637765045|True|Lubānas vidusskola|0|-1.0|-1.0|-1.0|-1.0|-1.0|-1.0
9658|ludzas2vidusskola|4213900475|LK|P. MIGLINĪKA IELA 34a, LUDZA, LUDZAS NOVADS, LV-5701|2009|409|1|56.53855|27.71777|Ludzas nov.|Ludza|--|--|15121|9389|--|15121|0.0028208154849284923|True|Ludzas 2. vidusskola|0|-1.0|-1.0|-1.0|-1.0|-1.0|-1.0
12760|sventesvidusskola|4213900519|LK|DAUGAVPILS IELA 1a, SVENTE, SVENTES PAGASTS, DAUGAVPILS NOVADS, LV-5473|2009|127|1|55.90525|26.37805|Daugavpils nov.|--|Medumu pag.|--|26747|--|--|26747|0.09849622987708752|True|Sventes vidusskola|0|-1.0|-1.0|-1.0|-1.0|-1.0|-1.0
9669|ludzasmūzikaspamatskola|4212900459|Latviešu|STACIJAS IELA 45, LUDZA, LUDZAS NOVADS, LV-5701|2009|70|1|56.5431|27.72016|Ludzas nov.|Ludza|--|--|15121|9389|--|15121|0.00379794681373972|True|Ludzas Mūzikas pamatskola|0|-1.0|-1.0|-1.0|-1.0|-1.0|-1.0
1595|valmieras5vidusskola|2513901081|Latviešu|RAIŅA IELA 3, VALMIERA, LV-4201|2009|589|1|57.54083|25.42371|--|--|--|Valmiera|--|--|26397|26397|0.003482097069293373|True|Valmieras 5. vidusskola|0|-1.0|-1.0|-1.0|-1.0|-1.0|-1.0
9691|ludzaspilsētasģimnāzija|4216900471|Latviešu|BLAUMAŅA IELA 4, LUDZA, LUDZAS NOVADS, LV-5701|2009|700|1|56.54122|27.71686|Ludzas nov.|Ludza|--|--|15121|9389|--|15121|0.0028208154849284923|True|Ludzas pilsētas ģimnāzija|1|-1.0|-1.0|-1.0|-1.0|-1.0|-1.0
1584|valmieras2vidusskola|2513901058|LK|RAIŅA IELA 11, VALMIERA, LV-4201|2009|327|1|57.54598|25.42271|--|--|--|Valmiera|--|--|26397|26397|0.005246189093047152|True|Valmieras 2. vidusskola|0|-1.0|-1.0|-1.0|-1.0|-1.0|-1.0
9702|madlienasvidusskola|4313900188|Latviešu|MADLIENA, MADLIENAS PAGASTS, OGRES NOVADS, LV-5045|2009|264|1|56.84711|25.15545|Ogres nov.|--|Madlienas pag.|--|37579|--|--|37579|0.05231122441694632|True|Madlienas vidusskola|0|-1.0|-1.0|-1.0|-1.0|-1.0|-1.0
9713|madonaspilsētas1vidusskola|4413902416|Latviešu|VALDEMĀRA BULVĀRIS 6, MADONA, MADONAS NOVADS, LV-4801|2009|892|1|56.8551|26.21878|Madonas nov.|Madona|--|--|26712|8492|--|26712|0.0010977249200030963|True|Madonas pilsētas 1. vidusskola|0|-1.0|-1.0|-1.0|-1.0|-1.0|-1.0
9724|madonaspilsētas2vidusskola|4413900132|Latviešu|SKOLAS IELA 10, MADONA, MADONAS NOVADS, LV-4801|2009|389|1|56.85269|26.21266|Madonas nov.|Madona|--|--|26712|8492|--|26712|0.006577423507725422|True|Madonas pilsētas 2. vidusskola|0|-1.0|-1.0|-1.0|-1.0|-1.0|-1.0
9757|madonasvalstsģimnāzija|4419902408|Latviešu|VALDEMĀRA BULVĀRIS 2a, MADONA, MADONAS NOVADS, LV-4801|2009|351|1|56.85455|26.21973|Madonas nov.|Madona|--|--|26712|8492|--|26712|0.0010977249200030963|True|Madonas Valsts ģimnāzija|1|-1.0|-1.0|-1.0|-1.0|-1.0|-1.0
13497|vilgālespamatskola|4112901193|Latviešu|VILGĀLE, KURMĀLES PAGASTS, KULDĪGAS NOVADS, LV-3332|2009|110|1|56.88196|21.82128|Kuldīgas nov.|--|Īvandes pag.|--|26065|--|--|26065|0.06916472583622313|True|Vilgāles pamatskola|0|-1.0|-1.0|-1.0|-1.0|-1.0|-1.0
9768|malienaspamatskola|4412900908|Latviešu|BRENCI, MALIENAS PAGASTS, ALŪKSNES NOVADS, LV-4359|2009|71|1|57.36207|27.16339|Alūksnes nov.|--|Malienas pag.|--|18258|--|--|18258|0.05571040836324873|True|Malienas pamatskola|0|-1.0|-1.0|-1.0|-1.0|-1.0|-1.0
1540|vispārējāsvidējāsizglītībasizlīdzinošāprogrammapieventspilsprofesionālāvidusskolas|3231001525|Latviešu|SAULES IELA 15, VENTSPILS, LV-3601|2009|33|1|57.39253|21.56046|Ventspils nov.|--|Ances pag.|Ventspils|12821|--|40676|12821|0.0039578276869986755|True|Vispārējās vidējās izglītības izlīdzinošā programma pie Ventspils Profesionālā vidusskolas|0|-1.0|-1.0|-1.0|-1.0|-1.0|-1.0
9779|mālpilsinternātpamatskola|4312901113|Latviešu|PILS IELA 14, MĀLPILS, MĀLPILS NOVADS, LV-2152|2009|120|1|57.00452|24.94964|Mālpils nov.|--|--|--|3843|--|--|3843|0.007924291766463627|True|Mālpils internātpamatskola|0|-1.0|-1.0|-1.0|-1.0|-1.0|-1.0
12749|sveķuspeciālāinternātpamatskola|4420900923|Latviešu|Aduliena, JAUNGULBENES PAGASTS, GULBENES NOVADS, LV-4420|2009|108|1|57.07591|26.52127|Gulbenes nov.|--|Jaungulbenes pag.|--|24310|--|--|24310|0.07189499287154992|True|Sveķu speciālā internātpamatskola|0|-1.0|-1.0|-1.0|-1.0|-1.0|-1.0
10769|piebalgaspamatskola|4412901392|Latviešu|JAUNPIEBALGA, JAUNPIEBALGAS PAGASTS, JAUNPIEBALGAS NOVADS, LV-4125|2009|39|1|57.18023|26.05599|Jaunpiebalgas nov.|--|Jaunpiebalgas pag.|--|2576|--|--|2576|0.03926562873557818|True|Piebalgas pamatskola|0|-1.0|-1.0|-1.0|-1.0|-1.0|-1.0
7645|elejasvidusskola|4513900859|Latviešu|MEŽA PROSPEKTS 5, ELEJA, ELEJAS PAGASTS, JELGAVAS NOVADS, LV-3023|2009|369|1|56.40894|23.68767|Jelgavas nov.|--|Elejas pag.|--|25920|--|--|25920|0.04780389628471765|True|Elejas vidusskola|0|-1.0|-1.0|-1.0|-1.0|-1.0|-1.0
2750|rīgas46vidusskola|3913900827|Krievu|SKUJU IELA 28, RĪGA, LV-1015|2009|555|1|57.03527|24.1115|--|--|--|Rīga|--|--|687443|687443|0.009285370213403778|True|Rīgas 46. vidusskola|0|-1.0|-1.0|-1.0|-1.0|-1.0|-1.0
3949|rīgasspeciālāpamatskola-attīstībascentrs|3620900694|Latviešu|MATĪSA IELA 37/39, RĪGA, LV-1009|2009|161|1|56.95583|24.1363|--|--|--|Rīga|--|--|687443|687443|0.0028158480072611354|True|Rīgas speciālā pamatskola - attīstības centrs|0|-1.0|-1.0|-1.0|-1.0|-1.0|-1.0
5511|"lazdiņasprivātāvidusskola""punktiņš"""|2813800019|Latviešu|JĀŅA ASARA IELA 12, JELGAVA, LV-3001|2009|29|1|56.6484|23.7122|Jelgavas nov.|--|Jaunsvirlaukas pag.|Jelgava|25920|--|62404|25920|0.0028401760508815813|True|"Lazdiņas privātā vidusskola ""Punktiņš"""|0|-1.0|-1.0|-1.0|-1.0|-1.0|-1.0
5522|ozolniekuvidusskola|4513900856|Latviešu|JELGAVAS IELA 35, OZOLNIEKI, OZOLNIEKU PAGASTS, OZOLNIEKU NOVADS, LV-3018|2009|447|1|56.69427|23.76338|Ozolnieku nov.|--|Cenu pag.|Jelgava|9915|--|62404|9915|0.02730773699888313|True|Ozolnieku vidusskola|0|-1.0|-1.0|-1.0|-1.0|-1.0|-1.0
5533|svētespamatskola|4512900842|Latviešu|VILCES IELA 6, SVĒTE, SVĒTES PAGASTS, JELGAVAS NOVADS, LV-3008|2009|180|1|56.64988|23.72209|Jelgavas nov.|--|Svētes pag.|Jelgava|25920|--|62404|25920|0.0016182088863895905|True|Svētes pamatskola|0|-1.0|-1.0|-1.0|-1.0|-1.0|-1.0
3927|rīgasspeciālāinternātpamatskola|3620900693|Krievu|AGLONAS IELA 57, RĪGA, LV-1057|2009|295|1|56.90957|24.19082|Stopiņu nov.|--|--|Rīga|9608|--|687443|9608|0.002486201922611412|True|Rīgas speciālā internātpamatskola|0|-1.0|-1.0|-1.0|-1.0|-1.0|-1.0
5555|dienasapmācībasklasespiejēkabpilsvakaravidusskolas|1014900264|LK|PALEJAS IELA 32, JĒKABPILS, LV-5202|2009|18|1|56.50554|25.86966|Krustpils nov.|--|Krustpils pag.|Jēkabpils|6392|--|25743|6392|0.004142197484427034|False|Dienas apmācības klases pie Jēkabpils vakara vidusskolas|0|-1.0|-1.0|-1.0|-1.0|-1.0|-1.0
3916|rīgassergejažoltokavidusskola|3613900665|Krievu|VIETALVAS IELA 15, RĪGA, LV-1035|2009|379|1|56.9451|24.16952|--|--|--|Rīga|--|--|687443|687443|0.008035322022174447|True|Rīgas Sergeja Žoltoka vidusskola|0|-1.0|-1.0|-1.0|-1.0|-1.0|-1.0
5566|jēkabpils2vidusskola|1013900258|Krievu|JAUNĀ IELA 44, JĒKABPILS, LV-5201|2009|710|1|56.49404|25.86026|--|--|--|Jēkabpils|--|--|25743|25743|0.00765836144354799|True|Jēkabpils 2. vidusskola|0|-1.0|-1.0|-1.0|-1.0|-1.0|-1.0
5577|jēkabpils3vidusskola|1013900259|Latviešu|SLIMNĪCAS IELA 5, JĒKABPILS, LV-5202|2009|721|1|56.50647|25.8889|Krustpils nov.|--|Krustpils pag.|Jēkabpils|6392|--|25743|6392|0.019262463497693928|True|Jēkabpils 3. vidusskola|0|-1.0|-1.0|-1.0|-1.0|-1.0|-1.0
5588|jēkabpilspamatskola|1012902246|Latviešu|RĪGAS IELA 200a, JĒKABPILS, LV-5202|2009|621|1|56.50477|25.86559|Krustpils nov.|--|Krustpils pag.|Jēkabpils|6392|--|25743|6392|0.004142197484427034|True|Jēkabpils pamatskola|0|-1.0|-1.0|-1.0|-1.0|-1.0|-1.0
5599|jēkabpilspoļupamatskola|1012900274|Poļu|RŪDOLFA BLAUMAŅA IELA 27, JĒKABPILS, LV-5201|2009|88|1|56.4994|25.85479|--|--|--|Jēkabpils|--|--|25743|25743|0.00765836144354799|True|Jēkabpils Poļu pamatskola|0|-1.0|-1.0|-1.0|-1.0|-1.0|-1.0
3894|rīgassanatorijasinternātpamatskola|3723901096|Latviešu|BRĪVĪBAS GATVE 384a, RĪGA, LV-1006|2009|76|1|56.98348|24.21484|--|--|--|Rīga|--|--|687443|687443|0.009677256842722649|True|Rīgas sanatorijas internātpamatskola|0|-1.0|-1.0|-1.0|-1.0|-1.0|-1.0
5621|jēkabpilsvalstsģimnāzija|1019900257|Latviešu|BLAUMAŅA IELA 27, JĒKABPILS, LV-5201|2009|575|1|56.4994|25.85479|--|--|--|Jēkabpils|--|--|25743|25743|0.00765836144354799|True|Jēkabpils Valsts ģimnāzija|0|-1.0|-1.0|-1.0|-1.0|-1.0|-1.0
3883|rīgasšampēteravidusskola|3813902514|LK|ŠAMPĒTERA IELA 98, RĪGA, LV-1046|2009|244|1|56.93673|24.02236|--|--|--|Rīga|--|--|687443|687443|0.007020434459489016|True|Rīgas Šampētera vidusskola|0|-1.0|-1.0|-1.0|-1.0|-1.0|-1.0
5632|krustpilspamatskola|1012900275|Latviešu|MADONAS IELA 48, JĒKABPILS, LV-5202|2009|216|1|56.52229|25.86742|Krustpils nov.|--|Krustpils pag.|Jēkabpils|6392|--|25743|6392|0.016899115361456794|True|Krustpils pamatskola|0|-1.0|-1.0|-1.0|-1.0|-1.0|-1.0
5643|daugavpils1speciālāpamatskola|2720901223|LK|18.Novembra 197b, DAUGAVPILS, LV-5417|2009|136|1|55.88297|26.56132|--|--|--|Daugavpils|--|--|98662|98662|0.004274821633704541|True|Daugavpils 1. speciālā pamatskola|0|-1.0|-1.0|-1.0|-1.0|-1.0|-1.0
3872|rīgassākumskola„papatya”|3611802618|Latviešu|ĢERTRŪDES IELA 127a, RĪGA, LV-1009|2009|3|1|56.94785|24.14144|--|--|--|Rīga|--|--|687443|687443|0.004686149805540714|False|Rīgas sākumskola „Papatya”|0|-1.0|-1.0|-1.0|-1.0|-1.0|-1.0
5654|daugavpils10vidusskola|2713900714|Krievu|TAUTAS IELA 11, DAUGAVPILS, LV-5404|2009|880|1|55.8734|26.54064|--|--|--|Daugavpils|--|--|98662|98662|0.0026521123656402003|True|Daugavpils 10. vidusskola|0|-1.0|-1.0|-1.0|-1.0|-1.0|-1.0
3861|"rīgassākumskola""valodiņa"""|3420900801|Latviešu|BLAUMAŅA IELA 26, RĪGA, LV-1011|2009|153|1|56.95313|24.12366|--|--|--|Rīga|--|--|687443|687443|0.002085689334487622|True|"Rīgas sākumskola ""Valodiņa"""|0|-1.0|-1.0|-1.0|-1.0|-1.0|-1.0
13123|upesgrīvasspeciālāsākumskola|2220901278|Latviešu|UPESGRĪVA, VANDZENES PAGASTS, TALSU NOVADS, LV-3284|2009|74|1|57.3862|23.00836|Mērsraga nov.|--|--|--|1742|--|--|1742|0.04804568659099412|False|Upesgrīvas speciālā sākumskola|0|-1.0|-1.0|-1.0|-1.0|-1.0|-1.0
5665|daugavpils11pamatskola|2712902175|Krievu|ARHITEKTU IELA 10, DAUGAVPILS, LV-5410|2009|252|1|55.89263|26.56242|--|--|--|Daugavpils|--|--|98662|98662|0.008948323865395723|True|Daugavpils 11. pamatskola|0|-1.0|-1.0|-1.0|-1.0|-1.0|-1.0
5489|jelgavasvalstsģimnāzija|2819902423|Latviešu|MĀTERA IELA 44, JELGAVA, LV-3001|2009|826|1|56.64428|23.72222|Jelgavas nov.|--|Jaunsvirlaukas pag.|Jelgava|25920|--|62404|25920|0.0034258575568711746|True|Jelgavas Valsts ģimnāzija|1|-1.0|-1.0|-1.0|-1.0|-1.0|-1.0
13277|vallesvidusskola|113901041|Latviešu|VALLE, VALLES PAGASTS, VECUMNIEKU NOVADS, LV-5106|2009|134|1|56.51507|24.72032|Vecumnieku nov.|--|Bārbeles pag.|--|9260|--|--|9260|0.11523912573427686|False|Valles vidusskola|0|-1.0|-1.0|-1.0|-1.0|-1.0|-1.0
4059|rīgasvaldazālīšapamatskola|3412900787|Latviešu|KALPAKA BULVĀRIS 8, RĪGA, LV-1050|2009|496|1|56.95435|24.11084|--|--|--|Rīga|--|--|687443|687443|0.0023072927859271995|True|Rīgas Valda Zālīša pamatskola|0|-1.0|-1.0|-1.0|-1.0|-1.0|-1.0
5313|jelgavas4pamatskola|2812900145|Latviešu|PULKVEŽA OSKARA KALPAKA IELA 34, JELGAVA, LV-3001|2009|984|1|56.6404171|23.7176672|Jelgavas nov.|--|Jaunsvirlaukas pag.|Jelgava|25920|--|62404|25920|0.005970760776484206|True|Jelgavas 4. pamatskola|0|-1.0|-1.0|-1.0|-1.0|-1.0|-1.0
5335|jelgavas4vidusskola|2813900137|Latviešu|AKMEŅU IELA 1, JELGAVA, LV-3004|2009|936|1|56.66256|23.75725|Ozolnieku nov.|--|Ozolnieku pag.|Jelgava|9915|--|62404|9915|0.010639008412441127|True|Jelgavas 4. vidusskola|0|-1.0|-1.0|-1.0|-1.0|-1.0|-1.0
5346|jelgavas5vidusskola|2813900138|Krievu|ASPAZIJAS IELA 20, JELGAVA, LV-3001|2009|752|1|56.65046|23.69736|Jelgavas nov.|--|Jaunsvirlaukas pag.|Jelgava|25920|--|62404|25920|0.008574625356249308|True|Jelgavas 5. vidusskola|1|-1.0|-1.0|-1.0|-1.0|-1.0|-1.0
5357|jelgavas6vidusskola|2813900139|Krievu|LOKA MAĢISTRĀLE 29, JELGAVA, LV-3004|2009|585|1|56.67042|23.75008|Ozolnieku nov.|--|Ozolnieku pag.|Jelgava|9915|--|62404|9915|0.007460113940150649|True|Jelgavas 6. vidusskola|0|-1.0|-1.0|-1.0|-1.0|-1.0|-1.0
4026|rīgasuniversālāvidusskola|3613900680|Krievu|MASKAVAS IELA 273, RĪGA, LV-1063|2009|776|1|56.92075|24.17635|--|--|--|Rīga|--|--|687443|687443|0.005346924349565862|True|Rīgas Universālā vidusskola|0|-1.0|-1.0|-1.0|-1.0|-1.0|-1.0
4004|rīgasteikasvidusskola|3713900746|Latviešu|AIZKRAUKLES IELA 14, RĪGA, LV-1006|2009|1017|1|56.97644|24.18487|--|--|--|Rīga|--|--|687443|687443|0.009292846711315|True|Rīgas Teikas vidusskola|0|-1.0|-1.0|-1.0|-1.0|-1.0|-1.0
5423|jelgavasspeciālāinternātpamatskola|2820902715|LK|FILOZOFU IELA 50, JELGAVA, LV-3001|2009|129|1|56.64255|23.70067|Jelgavas nov.|--|Jaunsvirlaukas pag.|Jelgava|25920|--|62404|25920|0.008574625356249308|True|Jelgavas speciālā internātpamatskola|0|-1.0|-1.0|-1.0|-1.0|-1.0|-1.0
5434|jelgavasspeciālāpamatskola|2820900152|LK|Zemgales Prospekts 7, JELGAVA, LV-3001|2009|114|1|56.64456|23.73149|Jelgavas nov.|--|Jaunsvirlaukas pag.|Jelgava|25920|--|62404|25920|0.002002623279601165|True|Jelgavas speciālā pamatskola|0|-1.0|-1.0|-1.0|-1.0|-1.0|-1.0
5445|jelgavasspīdolasģimnāzija|2813900140|Latviešu|MĀTERA IELA 30, JELGAVA, LV-3001|2009|432|1|56.64742|23.72085|Jelgavas nov.|--|Jaunsvirlaukas pag.|Jelgava|25920|--|62404|25920|0.0027548502681703324|True|Jelgavas Spīdolas ģimnāzija|0|-1.0|-1.0|-1.0|-1.0|-1.0|-1.0
4015|rīgasukraiņuvidusskola|3613900788|Ukraiņu|VISVALŽA IELA 4, RĪGA, LV-1050|2009|220|1|56.94874|24.12886|--|--|--|Rīga|--|--|687443|687443|0.0014577379737139718|True|Rīgas Ukraiņu vidusskola|0|-1.0|-1.0|-1.0|-1.0|-1.0|-1.0
5676|daugavpils12vidusskola|2713901240|Latviešu|KAUŅAS IELA 8, DAUGAVPILS, LV-5404|2009|625|1|55.87128|26.54677|--|--|--|Daugavpils|--|--|98662|98662|0.001516476178515018|True|Daugavpils 12. vidusskola|0|-1.0|-1.0|-1.0|-1.0|-1.0|-1.0
3850|rīgasrīnūžuvidusskola|3913900818|Krievu|ZIEMEĻBLĀZMAS IELA 59, RĪGA, LV-1015|2009|605|1|57.0388594|24.0947642|--|--|--|Rīga|--|--|687443|687443|0.010647714214797863|True|Rīgas Rīnūžu vidusskola|0|-1.0|-1.0|-1.0|-1.0|-1.0|-1.0
13288|vanagupamatskola|4212900371|Latviešu|VANAGI, UPMALAS PAGASTS, VĀRKAVAS NOVADS, LV-5316|2009|39|1|56.28883|26.37653|Līvānu nov.|Līvāni|--|--|13373|8676|--|13373|0.0601886874753081|True|Vanagu pamatskola|0|-1.0|-1.0|-1.0|-1.0|-1.0|-1.0
3729|rīgaspārdaugavaspamatskola|3812900704|Krievu|KARTUPEĻU IELA 2, RĪGA, LV-1058|2009|307|1|56.91232|24.09716|Mārupes nov.|--|--|Rīga|14656|--|687443|14656|0.005150941661485867|True|Rīgas Pārdaugavas pamatskola|0|-1.0|-1.0|-1.0|-1.0|-1.0|-1.0
5907|daugavpilsvalstsģimnāzija|2719902518|Latviešu|CIETOKŠŅA IELA 33, DAUGAVPILS, LV-5401|2009|354|1|55.87024|26.52054|--|--|--|Daugavpils|--|--|98662|98662|0.0014578408692316701|True|Daugavpils Valsts ģimnāzija|0|-1.0|-1.0|-1.0|-1.0|-1.0|-1.0
3718|rīgasostvaldavidusskola|3513900775|Krievu|DAMMES IELA 20, RĪGA, LV-1069|2009|655|1|56.96606|24.0151|--|--|--|Rīga|--|--|687443|687443|0.009539460152437626|True|Rīgas Ostvalda vidusskola|0|-1.0|-1.0|-1.0|-1.0|-1.0|-1.0
5918|daugavpilsvalstspoļuģimnāzija|2713901232|Poļu|VARŠAVAS IELA 2, DAUGAVPILS, LV-5404|2009|271|1|55.87104|26.53943|--|--|--|Daugavpils|--|--|98662|98662|0.0026521123656402003|False|Daugavpils valsts poļu ģimnāzija|0|-1.0|-1.0|-1.0|-1.0|-1.0|-1.0
5929|daugavpilsvienībaspamatskola|2712902233|Latviešu|ĢIMNĀZIJAS IELA 32, DAUGAVPILS, LV-5401|2009|477|1|55.86991|26.51912|--|--|--|Daugavpils|--|--|98662|98662|0.0014578408692316701|True|Daugavpils Vienības pamatskola|0|-1.0|-1.0|-1.0|-1.0|-1.0|-1.0
3707|rīgasnedzirdīgobērnuinternātpamatskola|3620900695|Latviešu|ALEKSANDRA ČAKA IELA 42, RĪGA, LV-1011|2009|130|1|56.95345|24.13149|--|--|--|Rīga|--|--|687443|687443|0.004039814352173222|True|Rīgas nedzirdīgo bērnu internātpamatskola|0|-1.0|-1.0|-1.0|-1.0|-1.0|-1.0
5940|jraiņadaugavpils6vidusskola|2713901222|Krievu|KOMUNĀLĀ IELA 2, DAUGAVPILS, LV-5418|2009|398|1|55.86448|26.50271|--|--|--|Daugavpils|--|--|98662|98662|0.010825917974931161|True|J. Raiņa Daugavpils 6. vidusskola|0|-1.0|-1.0|-1.0|-1.0|-1.0|-1.0
5973|pamatskolasklasespiedaugavpilsmūzikasvidusskolas|2731301245|LK|KANDAVAS IELA 2a, DAUGAVPILS, LV-5401|2009|29|1|55.87217|26.51033|--|--|--|Daugavpils|--|--|98662|98662|0.0017819090885879566|True|Pamatskolas klases pie Daugavpils Mūzikas vidusskolas|0|-1.0|-1.0|-1.0|-1.0|-1.0|-1.0
5984|vispārējāsvidējāsizglītībasizlīdzinošāprogrammapiedaugavpils1arodvidusskolas|2731001060|Krievu|Mendeļejeva 1, DAUGAVPILS, LV-5410|2009|35|1|55.89414|26.5536|--|--|--|Daugavpils|--|--|98662|98662|0.004797707786016507|True|Vispārējās vidējās izglītības izlīdzinošā programma pie Daugavpils 1. arodvidusskolas|0|-1.0|-1.0|-1.0|-1.0|-1.0|-1.0
